{"type":"FeatureCollection","features":[{"type":"Feature","geometry":{"type":"Point","coordinates":[121.7460556,25.12888718]},"properties":{"圖徵編號":"1","agency":"基隆市私立聯安護理之家","data":"2022031814:26:28","county":"基隆市","town":"仁愛區","address":"基隆市仁愛區和明里愛五路34號3樓、6樓","O_ABC":"B","Serve":"喘息服務","fax":"02-24241071","mail":"n24241071@yahoo.com.tw","name":"王虹禕","建立時間":"2023/10/23 上午 12:14:01"}},{"type":"Feature","geometry":{"type":"Point","coordinates":[121.6896744,25.08207703]},"properties":{"圖徵編號":"2","agency":"基隆市七堵區堵南社區發展協會","data":"2021032314:00:31","county":"基隆市","town":"七堵區","address":"基隆市七堵區堵南里大德路44號","O_ABC":"C","Serve":"巷弄長照站","fax":"024-527-585","mail":"20650donan@gmail.com","name":"蘇金鳳","建立時間":"2023/10/23 上午 12:14:01"}},{"type":"Feature","geometry":{"type":"Point","coordinates":[121.7455826,25.1306324]},"properties":{"圖徵編號":"3","agency":"基隆市私立健安老人長期照顧中心(養護型)","data":"2022012615:48:25","county":"基隆市","town":"中正區","address":"基隆市中正區德義里5鄰義2路2巷9號、13號3樓","O_ABC":"B","Serve":"喘息服務","fax":"02-24229001","mail":"jianan.yanghu@gmail.com","name":"王南凱","建立時間":"2023/10/23 上午 12:14:01"}},{"type":"Feature","geometry":{"type":"Point","coordinates":[121.751442,25.09594345]},"properties":{"圖徵編號":"4","agency":"基隆市暖暖區中興社區發展協會","data":"2023051015:46:19","county":"基隆市","town":"暖暖區","address":"基隆市暖暖區碇和里暖碇路170號","O_ABC":"B","Serve":"喘息服務","fax":"02-24570017","mail":"kao4374@yahoo.com.tw","name":"程天保","建立時間":"2023/10/23 上午 12:14:01"}},{"type":"Feature","geometry":{"type":"Point","coordinates":[121.7524338,25.1278019]},"properties":{"圖徵編號":"5","agency":"居達健康事業有限公司附設基隆市私立居達居家長照機構","data":"2022020816:56:49","county":"基隆市","town":"仁愛區","address":"基隆市仁愛區花崗里仁一路133號12樓","O_ABC":"B","Serve":"專業照護服務","fax":"2425-5717","mail":"aoueshin@gmail.com","name":"沈哲宇","建立時間":"2023/10/23 上午 12:14:01"}},{"type":"Feature","geometry":{"type":"Point","coordinates":[121.7482452,25.13043022]},"properties":{"圖徵編號":"6","agency":"衛生福利部基隆醫院附設護理之家","data":"2021030509:57:50","county":"基隆市","town":"信義區","address":"基隆市信義區仁壽里信二路二六八號","O_ABC":"B","Serve":"喘息服務","fax":"024-292-525","mail":"nurse001@kln.mohw.gov.tw","name":"侯玉雪","建立時間":"2023/10/23 上午 12:14:01"}},{"type":"Feature","geometry":{"type":"Point","coordinates":[121.7591782,25.14094162]},"properties":{"圖徵編號":"7","agency":"基隆市中正區衛生所","data":"2022031114:41:54","county":"基隆市","town":"中正區","address":"基隆市中正區中砂里中正路236號2樓","O_ABC":"B","Serve":"喘息服務","fax":"2462-1632#806","mail":"eugene@klchb.gov.tw","name":"張文龍","建立時間":"2023/10/23 上午 12:14:01"}},{"type":"Feature","geometry":{"type":"Point","coordinates":[121.7619858,25.12960625]},"properties":{"圖徵編號":"8","agency":"基隆市立醫院","data":"2023060615:09:15","county":"基隆市","town":"信義區","address":"基隆市信義區信綠里東信路282號","O_ABC":"B","Serve":"專業照護服務","fax":"02-24652141","mail":"c0938602873@kmh.gov.tw","name":"王慧珺","建立時間":"2023/10/23 上午 12:14:01"}},{"type":"Feature","geometry":{"type":"Point","coordinates":[121.7460022,25.12885475]},"properties":{"圖徵編號":"9","agency":"基隆市私立聯安老人長期照顧中心（養護型）","data":"2022031814:25:12","county":"基隆市","town":"仁愛區","address":"基隆市仁愛區和明里愛五路34號7樓","O_ABC":"B","Serve":"喘息服務","fax":"2424-1073","mail":"n24241071@yahoo.com.tw","name":"周辰澔","建立時間":"2023/10/23 上午 12:14:01"}},{"type":"Feature","geometry":{"type":"Point","coordinates":[121.751442,25.09594345]},"properties":{"圖徵編號":"10","agency":"基隆市暖暖區中興社區發展協會","data":"2023051015:46:19","county":"基隆市","town":"暖暖區","address":"基隆市暖暖區碇和里暖碇路170號","O_ABC":"C","Serve":"巷弄長照站","fax":"02-24570017","mail":"kao4374@yahoo.com.tw","name":"程天保","建立時間":"2023/10/23 上午 12:14:01"}},{"type":"Feature","geometry":{"type":"Point","coordinates":[121.752388,25.12795067]},"properties":{"圖徵編號":"11","agency":"基隆市仁愛區花崗社區發展協會","data":"2021032314:24:16","county":"基隆市","town":"仁愛區","address":"基隆市仁愛區花崗里仁一路133號4樓","O_ABC":"C","Serve":"巷弄長照站","fax":"2429-2507","mail":"kuo_jean@yahoo.com.tw","name":"吳碧真","建立時間":"2023/10/23 上午 12:14:01"}},{"type":"Feature","geometry":{"type":"Point","coordinates":[121.7302475,25.13358307]},"properties":{"圖徵編號":"12","agency":"基隆市天愛社會服務協會","data":"2023060216:12:44","county":"基隆市","town":"仁愛區","address":"基隆市仁愛區崇文里安一路266巷76號","O_ABC":"B","Serve":"喘息服務","fax":"02-24281994","mail":"jelly4056@gmail.com","name":"陳淑姿","建立時間":"2023/10/23 上午 12:14:01"}},{"type":"Feature","geometry":{"type":"Point","coordinates":[121.7368469,25.12525368]},"properties":{"圖徵編號":"13","agency":"基隆市仁愛區衛生所","data":"2021031714:29:06","county":"基隆市","town":"仁愛區","address":"基隆市仁愛區光華里光一路26號","O_ABC":"C","Serve":"巷弄長照站","fax":"2431-1592#29","mail":"fran0527@klchb.gov.tw","name":"曾舜玲","建立時間":"2023/10/23 上午 12:14:01"}},{"type":"Feature","geometry":{"type":"Point","coordinates":[121.7336426,25.13102531]},"properties":{"圖徵編號":"14","agency":"基隆市安樂區樂一社區發展協會","data":"2021032314:07:30","county":"基隆市","town":"安樂區","address":"基隆市安樂區樂一里樂一路28巷19號","O_ABC":"C","Serve":"巷弄長照站","fax":"2437-8381","mail":"yunt2384@gmail.com","name":"羅勇賢","建立時間":"2023/10/23 上午 12:14:01"}},{"type":"Feature","geometry":{"type":"Point","coordinates":[121.7347565,25.13443565]},"properties":{"圖徵編號":"15","agency":"基隆市安樂關懷協會","data":"2021030514:10:13","county":"基隆市","town":"中山區","address":"基隆市中山區西華里西定路130號","O_ABC":"C","Serve":"巷弄長照站","fax":"02-24225623","mail":"domiso945@yahoo.com.tw","name":"簡彰信","建立時間":"2023/10/23 上午 12:14:01"}},{"type":"Feature","geometry":{"type":"Point","coordinates":[121.7136765,25.09608459]},"properties":{"圖徵編號":"16","agency":"佑仁聯合診所","data":"2023060614:52:37","county":"基隆市","town":"七堵區","address":"基隆市七堵區正光里開元路59-1號","O_ABC":"B","Serve":"居家失能個案家庭醫師照護服務","fax":"(02)24562212","mail":"shu_ping@hotmail.com","name":"康德華","建立時間":"2023/10/23 上午 12:14:01"}},{"type":"Feature","geometry":{"type":"Point","coordinates":[121.7368469,25.12525368]},"properties":{"圖徵編號":"17","agency":"基隆市仁愛區衛生所","data":"2022031114:51:22","county":"基隆市","town":"仁愛區","address":"基隆市仁愛區光華里光一路26號","O_ABC":"B","Serve":"喘息服務","fax":"2431-1592#29","mail":"fran0527@klchb.gov.tw","name":"曾舜玲","建立時間":"2023/10/23 上午 12:14:01"}},{"type":"Feature","geometry":{"type":"Point","coordinates":[121.7083893,25.1456852]},"properties":{"圖徵編號":"18","agency":"基隆市私立順逸老人長期照顧中心(養護型)","data":"2022012615:32:58","county":"基隆市","town":"安樂區","address":"基隆市安樂區新崙里22鄰基金一路210巷58號","O_ABC":"B","Serve":"喘息服務","fax":"024-340-129","mail":"sy.nurse@msa.hinet.net","name":"簡淑芬","建立時間":"2023/10/23 上午 12:14:01"}},{"type":"Feature","geometry":{"type":"Point","coordinates":[121.7606735,25.14245605]},"properties":{"圖徵編號":"19","agency":"基隆市中正區正砂社區發展協會","data":"2021032314:29:54","county":"基隆市","town":"中正區","address":"基隆市中正區正砂里中正路179號3樓","O_ABC":"C","Serve":"巷弄長照站","fax":"0939-966644","mail":"cindycoekimo@yahoo.com.tw","name":"俞美霞","建立時間":"2023/10/23 上午 12:14:01"}},{"type":"Feature","geometry":{"type":"Point","coordinates":[121.7015076,25.08859253]},"properties":{"圖徵編號":"20","agency":"基隆市七堵區六堵社區發展協會","data":"2021062917:23:43","county":"基隆市","town":"七堵區","address":"基隆市七堵區六堵里六堵一街68號","O_ABC":"C","Serve":"巷弄長照站","fax":"02-24515089","mail":"wun122618226@yahoo.com.tw","name":"余良盛","建立時間":"2023/10/23 上午 12:14:01"}},{"type":"Feature","geometry":{"type":"Point","coordinates":[121.738266,25.13248825]},"properties":{"圖徵編號":"21","agency":"基隆市私立美綠居家護理所居家式服務類長期照顧服務機構","data":"2021042713:23:53","county":"基隆市","town":"中山區","address":"基隆市中山區中山里中山一路121號","O_ABC":"B","Serve":"居家服務","fax":"02-24251695","mail":"homecare-kl@fhmi.com.tw","name":"李珮菁","建立時間":"2023/10/23 上午 12:14:01"}},{"type":"Feature","geometry":{"type":"Point","coordinates":[121.6949463,25.08448219]},"properties":{"圖徵編號":"22","agency":"基隆市私立愛心老人長期照顧中心(養護型)","data":"2022072514:07:09","county":"基隆市","town":"七堵區","address":"基隆市七堵區堵北里福一街162號2樓","O_ABC":"B","Serve":"喘息服務","fax":"02-2452-4532","mail":"yangyang590211@gmail.com","name":"楊雪文","建立時間":"2023/10/23 上午 12:14:01"}},{"type":"Feature","geometry":{"type":"Point","coordinates":[121.7619858,25.12960625]},"properties":{"圖徵編號":"23","agency":"基隆市立醫院居家式服務類長期照顧服務機構","data":"2022123013:19:50","county":"基隆市","town":"信義區","address":"基隆市信義區信綠里東信路282號","O_ABC":"B","Serve":"喘息服務","fax":"02-24652141","mail":"zu@kmh.gov.tw","name":"王慧珺","建立時間":"2023/10/23 上午 12:14:01"}},{"type":"Feature","geometry":{"type":"Point","coordinates":[121.7524338,25.1278019]},"properties":{"圖徵編號":"24","agency":"居達健康事業有限公司附設基隆市私立居達居家長照機構","data":"2022030115:07:47","county":"基隆市","town":"仁愛區","address":"基隆市仁愛區花崗里仁一路133號12樓","O_ABC":"B","Serve":"喘息服務","fax":"2425-5717","mail":"aoueshin@gmail.com","name":"沈哲宇","建立時間":"2023/10/23 上午 12:14:01"}},{"type":"Feature","geometry":{"type":"Point","coordinates":[121.728508,25.13026047]},"properties":{"圖徵編號":"25","agency":"基隆市安樂區永康社區發展協會","data":"2023060216:14:03","county":"基隆市","town":"安樂區","address":"基隆市安樂區永康里崇德路10巷54-1號5樓","O_ABC":"B","Serve":"喘息服務","fax":"02-2429-2558","mail":"C24292558@gmail.com","name":"陳冠穎","建立時間":"2023/10/23 上午 12:14:01"}},{"type":"Feature","geometry":{"type":"Point","coordinates":[121.7576294,25.12874031]},"properties":{"圖徵編號":"26","agency":"基隆市信義區義和里辦公處","data":"2021032313:55:16","county":"基隆市","town":"信義區","address":"基隆市信義區義和里信二路15號3樓","O_ABC":"C","Serve":"巷弄長照站","fax":"024-262-441","mail":"YIHE24262441@GMAIL.COM","name":"蔡麗月","建立時間":"2023/10/23 上午 12:14:01"}},{"type":"Feature","geometry":{"type":"Point","coordinates":[121.7619858,25.12960625]},"properties":{"圖徵編號":"27","agency":"基隆市立醫院居家式服務類長期照顧服務機構","data":"2022123013:19:50","county":"基隆市","town":"信義區","address":"基隆市信義區信綠里東信路282號","O_ABC":"B","Serve":"專業照護服務","fax":"02-24652141","mail":"zu@kmh.gov.tw","name":"王慧珺","建立時間":"2023/10/23 上午 12:14:01"}},{"type":"Feature","geometry":{"type":"Point","coordinates":[121.6949463,25.08448219]},"properties":{"圖徵編號":"28","agency":"博愛護理之家","data":"2022072514:04:53","county":"基隆市","town":"七堵區","address":"基隆市七堵區堵北里福一街162號","O_ABC":"B","Serve":"喘息服務","fax":"02-24524592","mail":"kuoni1116@gmail.com","name":"郭湘妮","建立時間":"2023/10/23 上午 12:14:01"}},{"type":"Feature","geometry":{"type":"Point","coordinates":[121.7503586,25.13712883]},"properties":{"圖徵編號":"29","agency":"基隆市政府委託財團法人臺北市中國基督教靈糧世界佈道會士林靈糧堂經營管理基隆市中正社區式長期照顧服務機構","data":"2022020811:54:39","county":"基隆市","town":"中正區","address":"基隆市中正區正船里中船路11號","O_ABC":"B","Serve":"小規模多機能服務","fax":"02-24225570","mail":"kldaycare@slsc.org.tw","name":"許本爵","建立時間":"2023/10/23 上午 12:14:01"}},{"type":"Feature","geometry":{"type":"Point","coordinates":[121.7903671,25.13951874]},"properties":{"圖徵編號":"30","agency":"信賴職能治療所(居家式)","data":"2021070210:30:48","county":"基隆市","town":"中正區","address":"基隆市中正區新豐街161巷102號","O_ABC":"B","Serve":"專業照護服務","fax":"02-2469-5151","mail":"sinlaiot@gmail.com","name":"賴俊龍","建立時間":"2023/10/23 上午 12:14:01"}},{"type":"Feature","geometry":{"type":"Point","coordinates":[121.7619858,25.12960625]},"properties":{"圖徵編號":"31","agency":"基隆市立醫院居家式服務類長期照顧服務機構","data":"2022122812:00:44","county":"基隆市","town":"信義區","address":"基隆市信義區信綠里東信路282號","O_ABC":"B","Serve":"居家服務","fax":"02-24652141","mail":"zu@kmh.gov.tw","name":"王慧珺","建立時間":"2023/10/23 上午 12:14:01"}},{"type":"Feature","geometry":{"type":"Point","coordinates":[121.7533493,25.12843132]},"properties":{"圖徵編號":"32","agency":"社團法人中華民國士林靈糧堂社會福利協會","data":"2022020709:46:40","county":"基隆市","town":"信義區","address":"基隆市信義區義幸里013鄰信一路57號","O_ABC":"A","Serve":"個案管理服務","fax":"02-2451-6920","mail":"keelung.a@slsc.org.tw","name":"劉群茂","建立時間":"2023/10/23 上午 12:14:01"}},{"type":"Feature","geometry":{"type":"Point","coordinates":[121.7212296,25.0945797]},"properties":{"圖徵編號":"33","agency":"基隆市私立宏安老人長期照顧中心(養護型)","data":"2022020710:57:06","county":"基隆市","town":"七堵區","address":"基隆市七堵區長興里29鄰東新街91號2樓","O_ABC":"B","Serve":"喘息服務","fax":"02-2455-3517","mail":"hongan889@gmail.com","name":"王姿懿","建立時間":"2023/10/23 上午 12:14:01"}},{"type":"Feature","geometry":{"type":"Point","coordinates":[121.7481308,25.13026237]},"properties":{"圖徵編號":"34","agency":"衛生福利部基隆醫院","data":"2021030509:36:00","county":"基隆市","town":"信義區","address":"基隆市信義區仁壽里信二路268號","O_ABC":"B","Serve":"喘息服務","fax":"02-24292525","mail":"kao8563@gmail.com","name":"林三齊","建立時間":"2023/10/23 上午 12:14:01"}},{"type":"Feature","geometry":{"type":"Point","coordinates":[121.6959457,25.15705681]},"properties":{"圖徵編號":"35","agency":"基隆市私立福慧老人長期照顧中心(養護型)","data":"2021042712:05:44","county":"基隆市","town":"安樂區","address":"基隆市安樂區內寮里武聖街12號","O_ABC":"B","Serve":"喘息服務","fax":"024-320-418","mail":"quiz8871111@gmail.com","name":"陳立洋","建立時間":"2023/10/23 上午 12:14:01"}},{"type":"Feature","geometry":{"type":"Point","coordinates":[121.7524338,25.1278019]},"properties":{"圖徵編號":"36","agency":"居達健康事業有限公司附設基隆市私立居達居家長照機構","data":"2022020816:57:47","county":"基隆市","town":"仁愛區","address":"基隆市仁愛區花崗里仁一路133號12樓","O_ABC":"B","Serve":"喘息服務","fax":"2425-5717","mail":"aoueshin@gmail.com","name":"沈哲宇","建立時間":"2023/10/23 上午 12:14:01"}},{"type":"Feature","geometry":{"type":"Point","coordinates":[121.7302475,25.13358307]},"properties":{"圖徵編號":"37","agency":"基隆市天愛社會服務協會","data":"2023060216:12:44","county":"基隆市","town":"仁愛區","address":"基隆市仁愛區崇文里安一路266巷76號","O_ABC":"C","Serve":"巷弄長照站","fax":"02-24281994","mail":"jelly4056@gmail.com","name":"陳淑姿","建立時間":"2023/10/23 上午 12:14:01"}},{"type":"Feature","geometry":{"type":"Point","coordinates":[121.7347565,25.13443565]},"properties":{"圖徵編號":"38","agency":"基隆市安樂關懷協會","data":"2021030514:10:13","county":"基隆市","town":"中山區","address":"基隆市中山區西華里西定路130號","O_ABC":"B","Serve":"喘息服務","fax":"02-24225623","mail":"domiso945@yahoo.com.tw","name":"簡彰信","建立時間":"2023/10/23 上午 12:14:01"}},{"type":"Feature","geometry":{"type":"Point","coordinates":[121.7675705,25.12720299]},"properties":{"圖徵編號":"39","agency":"基隆市恩惠全人關懷協會","data":"2021032314:11:13","county":"基隆市","town":"信義區","address":"基隆市信義區東安里東信路3巷34號","O_ABC":"C","Serve":"巷弄長照站","fax":"2465-0910","mail":"kec316@yahoo.com.tw","name":"徐菊英","建立時間":"2023/10/23 上午 12:14:01"}},{"type":"Feature","geometry":{"type":"Point","coordinates":[121.6836624,25.08217239]},"properties":{"圖徵編號":"40","agency":"喜安護理之家","data":"2021042713:25:28","county":"基隆市","town":"七堵區","address":"基隆市七堵區堵南里堵南街五十一之十二號","O_ABC":"B","Serve":"喘息服務","fax":"024-511-225","mail":"shian2452@gmail.com","name":"簡宜萱","建立時間":"2023/10/23 上午 12:14:01"}},{"type":"Feature","geometry":{"type":"Point","coordinates":[121.7481308,25.13026237]},"properties":{"圖徵編號":"41","agency":"衛生福利部基隆醫院","data":"2023060615:11:22","county":"基隆市","town":"信義區","address":"基隆市信義區仁壽里信二路268號","O_ABC":"B","Serve":"居家失能個案家庭醫師照護服務","fax":"02-24292525","mail":"kao8563@gmail.com","name":"林三齊","建立時間":"2023/10/23 上午 12:14:01"}},{"type":"Feature","geometry":{"type":"Point","coordinates":[121.7287369,25.13418388]},"properties":{"圖徵編號":"42","agency":"財團法人天下為公社會福利慈善事業基金會","data":"2022120508:59:21","county":"基隆市","town":"安樂區","address":"基隆市安樂區干城里安一路329-3號1樓","O_ABC":"A","Serve":"個案管理服務","fax":"2428-3696","mail":"wba81597922@gmail.com","name":"胡世賢","建立時間":"2023/10/23 上午 12:14:01"}},{"type":"Feature","geometry":{"type":"Point","coordinates":[121.7396851,25.13130188]},"properties":{"圖徵編號":"43","agency":"仁祥診所","data":"2023060614:54:34","county":"基隆市","town":"仁愛區","address":"基隆市仁愛區文昌里忠一路20號","O_ABC":"B","Serve":"居家失能個案家庭醫師照護服務","fax":"2423-2111","mail":"z131232001@hotmail.com","name":"吳祥榮","建立時間":"2023/10/23 上午 12:14:01"}},{"type":"Feature","geometry":{"type":"Point","coordinates":[121.7393188,25.12756157]},"properties":{"圖徵編號":"44","agency":"基隆市私立逸嘉老人長期照顧中心（養護型）","data":"2022092709:41:14","county":"基隆市","town":"仁愛區","address":"基隆市仁愛區同風里11鄰忠4路13號7樓","O_ABC":"B","Serve":"喘息服務","fax":"2428-8091","mail":"ikaresthome@yahoo.com.tw","name":"李清文","建立時間":"2023/10/23 上午 12:14:01"}},{"type":"Feature","geometry":{"type":"Point","coordinates":[121.7903671,25.13951874]},"properties":{"圖徵編號":"45","agency":"永信健康事業有限公司附設基隆市私立永信居家長照機構","data":"2023071414:04:47","county":"基隆市","town":"中正區","address":"基隆市中正區新豐街161巷102號","O_ABC":"B","Serve":"居家服務","fax":"02-24695151","mail":"yongsinabc@gmail.com","name":"賴俊龍","建立時間":"2023/10/23 上午 12:14:01"}},{"type":"Feature","geometry":{"type":"Point","coordinates":[121.7192307,25.12389565]},"properties":{"圖徵編號":"46","agency":"駿安物理治療所(居家型)","data":"2023080217:19:14","county":"基隆市","town":"安樂區","address":"基隆市安樂區樂利二街34號1樓","O_ABC":"B","Serve":"專業照護服務(CC01)","fax":"0953-825-336","mail":"lily94520@hotmail.com","name":"林君芳","建立時間":"2023/10/23 上午 12:14:01"}},{"type":"Feature","geometry":{"type":"Point","coordinates":[121.7392807,25.14546967]},"properties":{"圖徵編號":"47","agency":"基隆市中山區通化社區發展協會","data":"2021032314:04:03","county":"基隆市","town":"中山區","address":"基隆市中山區通化里復旦路10號","O_ABC":"C","Serve":"巷弄長照站","fax":"024-282-050","mail":"480221@gmail.com","name":"葉張桂玉","建立時間":"2023/10/23 上午 12:14:01"}},{"type":"Feature","geometry":{"type":"Point","coordinates":[121.7533493,25.12843132]},"properties":{"圖徵編號":"48","agency":"社團法人中華民國士林靈糧堂社會福利協會","data":"2023020310:42:16","county":"基隆市","town":"信義區","address":"基隆市信義區義幸里013鄰信一路57號","O_ABC":"B","Serve":"營養餐飲服務","fax":"02-2451-6920","mail":"qidudaycare@slsc.org.tw","name":"劉群茂","建立時間":"2023/10/23 上午 12:14:01"}},{"type":"Feature","geometry":{"type":"Point","coordinates":[121.7465439,25.13260841]},"properties":{"圖徵編號":"49","agency":"財團法人基隆市私立昱冠人文社會福利慈善基金會","data":"2021032314:30:52","county":"基隆市","town":"中正區","address":"基隆市中正區德義里義二路106號2樓","O_ABC":"C","Serve":"巷弄長照站","fax":"02-24252631","mail":"wts499020489@gmail.com","name":"林淑娟","建立時間":"2023/10/23 上午 12:14:01"}},{"type":"Feature","geometry":{"type":"Point","coordinates":[121.7192307,25.12389565]},"properties":{"圖徵編號":"50","agency":"駿安物理治療所(居家型)","data":"2023071713:32:08","county":"基隆市","town":"安樂區","address":"基隆市安樂區樂利二街34號1樓","O_ABC":"B","Serve":"專業照護服務","fax":"0953-825-336","mail":"lily94520@hotmail.com","name":"林君芳","建立時間":"2023/10/23 上午 12:14:01"}},{"type":"Feature","geometry":{"type":"Point","coordinates":[121.7081451,25.08831406]},"properties":{"圖徵編號":"51","agency":"社團法人中華民國士林靈糧堂社會福利協會附設基隆市私立七堵綜合式服務類長期照顧服務機構","data":"2022122816:35:07","county":"基隆市","town":"七堵區","address":"基隆市七堵區永安里泰安路24之1號","O_ABC":"B","Serve":"團體家屋服務","fax":"02-24516920","mail":"qidudaycare@slsc.org.tw","name":"劉群茂","建立時間":"2023/10/23 上午 12:14:01"}},{"type":"Feature","geometry":{"type":"Point","coordinates":[121.7135925,25.12691116]},"properties":{"圖徵編號":"52","agency":"基隆市安樂區五福社區發展協會","data":"2021032314:09:29","county":"基隆市","town":"安樂區","address":"基隆市安樂區五福里樂利三街38巷2-4號","O_ABC":"C","Serve":"巷弄長照站","fax":"0919-948-526","mail":"love.wufu@yahoo.com.tw","name":"鄭林清良","建立時間":"2023/10/23 上午 12:14:01"}},{"type":"Feature","geometry":{"type":"Point","coordinates":[121.7386475,25.09584045]},"properties":{"圖徵編號":"53","agency":"基隆市私立松齡社區長照機構","data":"2022120514:55:58","county":"基隆市","town":"暖暖區","address":"基隆市暖暖區暖西里東勢街6-46號3樓","O_ABC":"B","Serve":"喘息服務","fax":"02-24596858","mail":"songlin2945@gmail.com","name":"李軒丞","建立時間":"2023/10/23 上午 12:14:01"}},{"type":"Feature","geometry":{"type":"Point","coordinates":[121.7778091,25.13524246]},"properties":{"圖徵編號":"54","agency":"基隆市私立深美老人長期照顧中心(養護型)","data":"2021071516:59:13","county":"基隆市","town":"信義區","address":"基隆市信義區孝忠里20鄰教忠街37號","O_ABC":"B","Serve":"喘息服務","fax":"02-24685311","mail":"shenmei6@gmail.com","name":"吳靜宜","建立時間":"2023/10/23 上午 12:14:01"}},{"type":"Feature","geometry":{"type":"Point","coordinates":[121.7481308,25.13026237]},"properties":{"圖徵編號":"55","agency":"衛生福利部基隆醫院","data":"2021030509:36:00","county":"基隆市","town":"信義區","address":"基隆市信義區仁壽里信二路268號","O_ABC":"B","Serve":"專業照護服務","fax":"02-24292525","mail":"kao8563@gmail.com","name":"林三齊","建立時間":"2023/10/23 上午 12:14:01"}},{"type":"Feature","geometry":{"type":"Point","coordinates":[121.7470169,25.13477707]},"properties":{"圖徵編號":"56","agency":"贏養食沛有限公司附設基隆市私立迎養社區式服務類長期照顧服務機構","data":"2022122816:37:18","county":"基隆市","town":"仁愛區","address":"基隆市仁愛區水錦里劉銘傳路1號5樓之2","O_ABC":"B","Serve":"日間照顧服務","fax":"02-24278989","mail":"yinyang202011@gmail.com","name":"許睿慈","建立時間":"2023/10/23 上午 12:14:01"}},{"type":"Feature","geometry":{"type":"Point","coordinates":[121.7482529,25.12892723]},"properties":{"圖徵編號":"57","agency":"衛生福利部基隆醫院附設社區式服務類長期照顧服務機構","data":"2022122816:35:33","county":"基隆市","town":"信義區","address":"基隆市信義區仁壽里信一路124號2樓","O_ABC":"B","Serve":"日間照顧服務","fax":"02-24266826","mail":"daycare@kln.mohw.gov.tw","name":"林慶豐","建立時間":"2023/10/23 上午 12:14:01"}},{"type":"Feature","geometry":{"type":"Point","coordinates":[121.7591782,25.14094162]},"properties":{"圖徵編號":"58","agency":"基隆市中正區衛生所","data":"2021030410:46:15","county":"基隆市","town":"中正區","address":"基隆市中正區中砂里中正路236號2樓","O_ABC":"C","Serve":"巷弄長照站","fax":"2462-1632#806","mail":"eugene@klchb.gov.tw","name":"張文龍","建立時間":"2023/10/23 上午 12:14:01"}},{"type":"Feature","geometry":{"type":"Point","coordinates":[121.7372589,25.10154533]},"properties":{"圖徵編號":"59","agency":"基隆市暖暖區暖同里辦公處","data":"2021032311:50:31","county":"基隆市","town":"暖暖區","address":"基隆市暖暖區暖同里暖暖街16巷41號","O_ABC":"C","Serve":"巷弄長照站","fax":"2458-6694","mail":"lee44322@yahoo.com.tw","name":"林明坤","建立時間":"2023/10/23 上午 12:14:01"}},{"type":"Feature","geometry":{"type":"Point","coordinates":[121.7524338,25.1278019]},"properties":{"圖徵編號":"60","agency":"居達健康事業有限公司附設基隆市私立居達居家長照機構","data":"2022030115:12:39","county":"基隆市","town":"仁愛區","address":"基隆市仁愛區花崗里仁一路133號12樓","O_ABC":"B","Serve":"專業照護服務","fax":"2425-5717","mail":"aoueshin@gmail.com","name":"沈哲宇","建立時間":"2023/10/23 上午 12:14:01"}},{"type":"Feature","geometry":{"type":"Point","coordinates":[121.7622375,25.12709808]},"properties":{"圖徵編號":"61","agency":"(基隆)正泰居家物理治療所","data":"2023051808:08:48","county":"基隆市","town":"信義區","address":"基隆市信義區禮東里東明路67巷18-2號","O_ABC":"B","Serve":"專業照護服務","fax":"0953-325-979","mail":"Anita73711@yahoo.com.tw","name":"陳吟貞","建立時間":"2023/10/23 上午 12:14:01"}},{"type":"Feature","geometry":{"type":"Point","coordinates":[121.7638092,25.15506935]},"properties":{"圖徵編號":"62","agency":"基隆市中正區平寮社區發展協會","data":"2021032314:06:24","county":"基隆市","town":"中正區","address":"基隆市中正區平寮里和一路186號","O_ABC":"C","Serve":"巷弄長照站","fax":"2463-3367","mail":"a0937869965@hotmail.com","name":"許麗英","建立時間":"2023/10/23 上午 12:14:01"}},{"type":"Feature","geometry":{"type":"Point","coordinates":[121.7936096,25.13783646]},"properties":{"圖徵編號":"63","agency":"安馨幸福企業股份有限公司基隆市私立安馨居家長照機構","data":"2023072915:27:53","county":"基隆市","town":"中正區","address":"基隆市中正區觀海街52號","O_ABC":"B","Serve":"居家服務","fax":"02-24605808","mail":"ella9549@yahoo.com.tw","name":"葛昭昀","建立時間":"2023/10/23 上午 12:14:01"}},{"type":"Feature","geometry":{"type":"Point","coordinates":[121.7903671,25.13951874]},"properties":{"圖徵編號":"64","agency":"信賴職能治療所(居家式)","data":"2023080217:19:14","county":"基隆市","town":"中正區","address":"基隆市中正區新豐街161巷102號","O_ABC":"B","Serve":"專業照護服務(CC01)","fax":"02-2469-5151","mail":"sinlaiot@gmail.com","name":"賴俊龍","建立時間":"2023/10/23 上午 12:14:01"}},{"type":"Feature","geometry":{"type":"Point","coordinates":[121.7524338,25.1278019]},"properties":{"圖徵編號":"65","agency":"居達健康事業有限公司附設基隆市私立居達居家長照機構","data":"2022030115:06:39","county":"基隆市","town":"仁愛區","address":"基隆市仁愛區花崗里仁一路133號12樓","O_ABC":"B","Serve":"居家服務","fax":"2425-5717","mail":"aoueshin@gmail.com","name":"沈哲宇","建立時間":"2023/10/23 上午 12:14:01"}},{"type":"Feature","geometry":{"type":"Point","coordinates":[121.7081451,25.08831406]},"properties":{"圖徵編號":"66","agency":"社團法人中華民國士林靈糧堂社會福利協會附設基隆市私立七堵綜合式服務類長期照顧服務機構","data":"2023030914:32:30","county":"基隆市","town":"七堵區","address":"基隆市七堵區永安里泰安路24之1號","O_ABC":"B","Serve":"喘息服務","fax":"02-24516920","mail":"qidudaycare@slsc.org.tw","name":"劉群茂","建立時間":"2023/10/23 上午 12:14:01"}},{"type":"Feature","geometry":{"type":"Point","coordinates":[121.7619858,25.12960625]},"properties":{"圖徵編號":"67","agency":"基隆市立醫院","data":"2023060615:08:25","county":"基隆市","town":"信義區","address":"基隆市信義區信綠里東信路282號","O_ABC":"B","Serve":"居家失能個案家庭醫師照護服務","fax":"02-24652141","mail":"c0938602873@kmh.gov.tw","name":"王慧珺","建立時間":"2023/10/23 上午 12:14:01"}},{"type":"Feature","geometry":{"type":"Point","coordinates":[121.7254333,25.1463356]},"properties":{"圖徵編號":"68","agency":"基隆市中山區德和社區發展協會","data":"2021032314:00:58","county":"基隆市","town":"中山區","address":"基隆市中山區德和里復興路201巷1弄26號","O_ABC":"C","Serve":"巷弄長照站","fax":"0932-161-113","mail":"runwide54791873@gmail.com","name":"洪圓明","建立時間":"2023/10/23 上午 12:14:01"}},{"type":"Feature","geometry":{"type":"Point","coordinates":[121.737648,25.12446785]},"properties":{"圖徵編號":"69","agency":"基隆市仁愛區獅球里辦公處","data":"2021032314:06:54","county":"基隆市","town":"仁愛區","address":"基隆市仁愛區獅球里獅球路115號","O_ABC":"C","Serve":"巷弄長照站","fax":"2431-7291","mail":"9678rk@gmail.com","name":"林錦榮","建立時間":"2023/10/23 上午 12:14:01"}},{"type":"Feature","geometry":{"type":"Point","coordinates":[121.7903671,25.13951874]},"properties":{"圖徵編號":"70","agency":"信賴職能治療所(居家式)","data":"2023011014:51:40","county":"基隆市","town":"中正區","address":"基隆市中正區新豐街161巷102號","O_ABC":"B","Serve":"專業照護服務","fax":"02-2469-5151","mail":"sinlaiot@gmail.com","name":"賴俊龍","建立時間":"2023/10/23 上午 12:14:01"}},{"type":"Feature","geometry":{"type":"Point","coordinates":[121.7383652,25.10472488]},"properties":{"圖徵編號":"71","agency":"基隆市暖暖區過港社區發展協會","data":"2023051015:45:11","county":"基隆市","town":"暖暖區","address":"基隆市暖暖區過港里過港路54號","O_ABC":"C","Serve":"巷弄長照站","fax":"02-24588802","mail":"peter830622@yahoo.com.tw","name":"成耀民","建立時間":"2023/10/23 上午 12:14:01"}},{"type":"Feature","geometry":{"type":"Point","coordinates":[121.7903671,25.13951874]},"properties":{"圖徵編號":"72","agency":"永信健康事業有限公司附設基隆市私立永信居家長照機構","data":"2023072915:29:36","county":"基隆市","town":"中正區","address":"基隆市中正區新豐街161巷102號","O_ABC":"B","Serve":"居家服務","fax":"02-24695151","mail":"yongsinabc@gmail.com","name":"賴俊龍","建立時間":"2023/10/23 上午 12:14:01"}},{"type":"Feature","geometry":{"type":"Point","coordinates":[121.7571182,25.14093018]},"properties":{"圖徵編號":"73","agency":"金田文教育樂有限公司附設基隆市私立金田社區長照機構","data":"2022091614:05:32","county":"基隆市","town":"中正區","address":"基隆市中正區正砂里中正路99號3樓、3樓之一、3樓之二、3樓之四","O_ABC":"B","Serve":"日間照顧服務","fax":"02-24625988","mail":"kingten5988@gmail.com","name":"林子又","建立時間":"2023/10/23 上午 12:14:01"}},{"type":"Feature","geometry":{"type":"Point","coordinates":[121.7936096,25.13783646]},"properties":{"圖徵編號":"74","agency":"安馨幸福企業股份有限公司基隆市私立安馨居家長照機構","data":"2023092110:59:10","county":"基隆市","town":"中正區","address":"基隆市中正區觀海街52號","O_ABC":"A","Serve":"個案管理服務","fax":"02-24605808","mail":"ella9549@yahoo.com.tw","name":"葛昭昀","建立時間":"2023/10/23 上午 12:14:01"}},{"type":"Feature","geometry":{"type":"Point","coordinates":[121.7394485,25.13451767]},"properties":{"圖徵編號":"75","agency":"基隆市中山區民治里辦公處","data":"2021032314:02:19","county":"基隆市","town":"中山區","address":"基隆市中山區民治里中山一路219號","O_ABC":"C","Serve":"巷弄長照站","fax":"024-234-213","mail":"TN.SHY@MSA.HINET.NET","name":"施財濃","建立時間":"2023/10/23 上午 12:14:01"}},{"type":"Feature","geometry":{"type":"Point","coordinates":[121.7913437,25.12389565]},"properties":{"圖徵編號":"76","agency":"基隆市私立信賴居家長照機構","data":"2023020113:37:30","county":"基隆市","town":"信義區","address":"基隆市信義區孝岡里深澳坑路137之40號5樓","O_ABC":"A","Serve":"個案管理服務","fax":"02-24660003","mail":"sinlaiabc@gmail.com","name":"賴俊龍","建立時間":"2023/10/23 上午 12:14:01"}},{"type":"Feature","geometry":{"type":"Point","coordinates":[121.7913437,25.12389565]},"properties":{"圖徵編號":"77","agency":"基隆市私立信賴居家長照機構","data":"2022092709:43:58","county":"基隆市","town":"信義區","address":"基隆市信義區孝岡里深澳坑路137之40號5樓","O_ABC":"B","Serve":"喘息服務","fax":"02-24660003","mail":"sinlaiabc@gmail.com","name":"賴俊龍","建立時間":"2023/10/23 上午 12:14:01"}},{"type":"Feature","geometry":{"type":"Point","coordinates":[121.7148285,25.09752655]},"properties":{"圖徵編號":"78","agency":"惠安復健科診所","data":"2021042911:33:55","county":"基隆市","town":"七堵區","address":"基隆市七堵區正光里南興路12號2樓","O_ABC":"B","Serve":"專業照護服務","fax":"(02)24569908","mail":"lazuli28allen@gmail.com","name":"陳俊亨","建立時間":"2023/10/23 上午 12:14:01"}},{"type":"Feature","geometry":{"type":"Point","coordinates":[121.7262115,25.14961052]},"properties":{"圖徵編號":"79","agency":"基隆市中山區德安里辦公處","data":"2021032314:05:45","county":"基隆市","town":"中山區","address":"基隆市中山區德安里復興路259巷1-1號","O_ABC":"C","Serve":"巷弄長照站","fax":"2437-4884","mail":"hopeandsweet@gamil.com","name":"謝銘傳","建立時間":"2023/10/23 上午 12:14:01"}},{"type":"Feature","geometry":{"type":"Point","coordinates":[121.7372437,25.12949371]},"properties":{"圖徵編號":"80","agency":"基隆市中山區新建社區發展協會","data":"2021032314:02:52","county":"基隆市","town":"中山區","address":"基隆市中山區新建里成功二路2-1號","O_ABC":"C","Serve":"巷弄長照站","fax":"024-220-901","mail":"hopeandsweet@gmail.com","name":"簡秀月","建立時間":"2023/10/23 上午 12:14:01"}},{"type":"Feature","geometry":{"type":"Point","coordinates":[121.7349777,25.13357162]},"properties":{"圖徵編號":"81","agency":"有限責任基隆市第一照顧服務勞動合作社附設基隆市私立第一居家長照機構","data":"2022122811:34:23","county":"基隆市","town":"中山區","address":"基隆市中山區西榮里9鄰西定路85之4號","O_ABC":"B","Serve":"居家服務","fax":"02-24250679","mail":"we30061977@gmail.com","name":"溫秀嬌","建立時間":"2023/10/23 上午 12:14:01"}},{"type":"Feature","geometry":{"type":"Point","coordinates":[121.7081451,25.08831406]},"properties":{"圖徵編號":"82","agency":"社團法人中華民國士林靈糧堂社會福利協會附設基隆市私立七堵綜合式服務類長期照顧服務機構","data":"2022122811:31:16","county":"基隆市","town":"七堵區","address":"基隆市七堵區永安里泰安路24之1號","O_ABC":"B","Serve":"居家服務","fax":"02-24516920","mail":"qidudaycare@slsc.org.tw","name":"劉群茂","建立時間":"2023/10/23 上午 12:14:01"}},{"type":"Feature","geometry":{"type":"Point","coordinates":[121.728508,25.13026047]},"properties":{"圖徵編號":"83","agency":"基隆市安樂區永康社區發展協會","data":"2023060216:14:03","county":"基隆市","town":"安樂區","address":"基隆市安樂區永康里崇德路10巷54-1號5樓","O_ABC":"C","Serve":"巷弄長照站","fax":"02-2429-2558","mail":"C24292558@gmail.com","name":"陳冠穎","建立時間":"2023/10/23 上午 12:14:01"}},{"type":"Feature","geometry":{"type":"Point","coordinates":[121.7124634,25.14113808]},"properties":{"圖徵編號":"84","agency":"基隆市安樂區武崙社區發展協會","data":"2021032314:26:40","county":"基隆市","town":"安樂區","address":"基隆市安樂區武崙里基金一路164號7樓","O_ABC":"C","Serve":"巷弄長照站","fax":"024-346-867","mail":"c887811@yahoo.com.tw","name":"陳明梅","建立時間":"2023/10/23 上午 12:14:01"}},{"type":"Feature","geometry":{"type":"Point","coordinates":[121.7168274,25.12623787]},"properties":{"圖徵編號":"85","agency":"財團法人中華民國佛教慈濟慈善事業基金會基隆市私立慈濟居家長照機構","data":"2023050409:42:50","county":"基隆市","town":"安樂區","address":"基隆市安樂區六合里樂利三街150號1樓","O_ABC":"C","Serve":"巷弄長照站","fax":"02-24326658","mail":"ltc000287@tzuchi.org.tw","name":"釋證嚴","建立時間":"2023/10/23 上午 12:14:01"}},{"type":"Feature","geometry":{"type":"Point","coordinates":[121.7240143,25.12100983]},"properties":{"圖徵編號":"86","agency":"李偉華耳鼻喉科診所","data":"2023060615:00:05","county":"基隆市","town":"安樂區","address":"基隆市安樂區鶯歌里安樂路二段179號","O_ABC":"B","Serve":"居家失能個案家庭醫師照護服務","fax":"(02)24348535","mail":"leeweihua@yahoo.com.tw","name":"李偉華","建立時間":"2023/10/23 上午 12:14:01"}},{"type":"Feature","geometry":{"type":"Point","coordinates":[121.7470932,25.13535881]},"properties":{"圖徵編號":"87","agency":"寶珠職能治療所","data":"2023080217:19:14","county":"基隆市","town":"中正區","address":"基隆市中正區義一路111號3樓","O_ABC":"B","Serve":"專業照護服務(CC01)","fax":"024-256-090","mail":"baozhucare@gmail.com","name":"伍祐鼎","建立時間":"2023/10/23 上午 12:14:01"}},{"type":"Feature","geometry":{"type":"Point","coordinates":[121.7212296,25.0945797]},"properties":{"圖徵編號":"88","agency":"基隆市私立宏安老人長期照顧中心(養護型)","data":"2022120908:37:55","county":"基隆市","town":"七堵區","address":"基隆市七堵區長興里29鄰東新街91號2樓","O_ABC":"B","Serve":"喘息服務","fax":"02-2455-3517","mail":"hongan889@gmail.com","name":"王姿懿","建立時間":"2023/10/23 上午 12:14:01"}},{"type":"Feature","geometry":{"type":"Point","coordinates":[121.7663269,25.15074158]},"properties":{"圖徵編號":"89","agency":"漁工診所","data":"2021030513:59:02","county":"基隆市","town":"中正區","address":"基隆市中正區中正里中正路612號","O_ABC":"B","Serve":"居家失能個案家庭醫師照護服務","fax":"(02)24624802","mail":"yugong11111@gmail.com","name":"胡經台","建立時間":"2023/10/23 上午 12:14:01"}},{"type":"Feature","geometry":{"type":"Point","coordinates":[121.7480011,25.12736893]},"properties":{"圖徵編號":"90","agency":"王俊傑耳鼻喉科診所","data":"2021030513:58:35","county":"基隆市","town":"仁愛區","address":"基隆市仁愛區智仁里仁二路117號","O_ABC":"B","Serve":"居家失能個案家庭醫師照護服務","fax":"(02)24253660","mail":"stone15613@gmail.com","name":"王俊傑","建立時間":"2023/10/23 上午 12:14:01"}},{"type":"Feature","geometry":{"type":"Point","coordinates":[121.7148285,25.09752655]},"properties":{"圖徵編號":"91","agency":"惠安復健科診所","data":"2023080217:19:14","county":"基隆市","town":"七堵區","address":"基隆市七堵區正光里南興路12號2樓","O_ABC":"B","Serve":"專業照護服務(CC01)","fax":"(02)24569908","mail":"lazuli28allen@gmail.com","name":"陳俊亨","建立時間":"2023/10/23 上午 12:14:01"}},{"type":"Feature","geometry":{"type":"Point","coordinates":[121.6972656,25.08562088]},"properties":{"圖徵編號":"92","agency":"采宣股份有限公司附設基隆市私立采宣居家式服務類長期照顧服務機構","data":"2023030914:39:18","county":"基隆市","town":"七堵區","address":"基隆市七堵區百福里百六街111號","O_ABC":"B","Serve":"喘息服務","fax":"02-24510380","mail":"myteamcare@gmail.com","name":"朱秋蓉","建立時間":"2023/10/23 上午 12:14:01"}},{"type":"Feature","geometry":{"type":"Point","coordinates":[121.7571487,25.14093018]},"properties":{"圖徵編號":"93","agency":"基隆市私立祥安老人長期照顧中心(養護型)","data":"2021042713:43:36","county":"基隆市","town":"中正區","address":"基隆市中正區正砂里中正路99號2樓","O_ABC":"B","Serve":"喘息服務","fax":"024-629-980","mail":"linzzsa123@gmail.com","name":"邱春蘭","建立時間":"2023/10/23 上午 12:14:01"}},{"type":"Feature","geometry":{"type":"Point","coordinates":[121.7556305,25.09952736]},"properties":{"圖徵編號":"94","agency":"基隆市財團法人中華基督教碇內浸信會","data":"2023020309:10:16","county":"基隆市","town":"暖暖區","address":"基隆市暖暖區碇安里源遠路277巷25-1號","O_ABC":"B","Serve":"喘息服務","fax":"02-2458-7641","mail":"ellenchen839@hotmail.com","name":"宣承義","建立時間":"2023/10/23 上午 12:14:01"}},{"type":"Feature","geometry":{"type":"Point","coordinates":[121.7491455,25.12968826]},"properties":{"圖徵編號":"95","agency":"基隆市信義區仁壽社區發展協會","data":"2021032313:50:07","county":"基隆市","town":"信義區","address":"基隆市信義區仁壽里信二路249號","O_ABC":"C","Serve":"巷弄長照站","fax":"024-211-490","mail":"PAO4125@YAHOO.COM.TW","name":"林東寶","建立時間":"2023/10/23 上午 12:14:01"}},{"type":"Feature","geometry":{"type":"Point","coordinates":[121.7372284,25.14215088]},"properties":{"圖徵編號":"96","agency":"基隆中山區健民社區發展協會","data":"2021032313:45:48","county":"基隆市","town":"中山區","address":"基隆市中山區健民里健民街1巷3弄26之1?","O_ABC":"C","Serve":"巷弄長照站","fax":"024-277-651","mail":"hopeandsweet@gmail.com","name":"劉健鑑","建立時間":"2023/10/23 上午 12:14:01"}},{"type":"Feature","geometry":{"type":"Point","coordinates":[121.7778091,25.13524246]},"properties":{"圖徵編號":"97","agency":"基隆市私立深美老人長期照顧中心(養護型)","data":"2022022116:45:47","county":"基隆市","town":"信義區","address":"基隆市信義區孝忠里20鄰教忠街37號","O_ABC":"B","Serve":"喘息服務","fax":"02-24685311","mail":"shenmei6@gmail.com","name":"吳靜宜","建立時間":"2023/10/23 上午 12:14:01"}},{"type":"Feature","geometry":{"type":"Point","coordinates":[121.7365417,25.0989666]},"properties":{"圖徵編號":"98","agency":"基隆市暖暖區衛生所","data":"2022031413:46:54","county":"基隆市","town":"暖暖區","address":"基隆市暖暖區暖暖里暖暖街281巷98號","O_ABC":"B","Serve":"喘息服務","fax":"024-572-630","mail":"fang0330@klchb.gov.tw","name":"吳美慧","建立時間":"2023/10/23 上午 12:14:01"}},{"type":"Feature","geometry":{"type":"Point","coordinates":[121.7386475,25.09584045]},"properties":{"圖徵編號":"99","agency":"基隆市私立松齡社區長照機構","data":"2022122816:38:16","county":"基隆市","town":"暖暖區","address":"基隆市暖暖區暖西里東勢街6-46號3樓","O_ABC":"B","Serve":"日間照顧服務","fax":"02-24596858","mail":"songlin2945@gmail.com","name":"李軒丞","建立時間":"2023/10/23 上午 12:14:01"}},{"type":"Feature","geometry":{"type":"Point","coordinates":[121.7881088,25.13633728]},"properties":{"圖徵編號":"100","agency":"聖母聯合診所","data":"2021030513:59:20","county":"基隆市","town":"中正區","address":"基隆市中正區新富里新豐街251巷3號","O_ABC":"B","Serve":"居家失能個案家庭醫師照護服務","fax":"(02)24694678","mail":"shengmu807@gmail.com","name":"潘國斌","建立時間":"2023/10/23 上午 12:14:01"}},{"type":"Feature","geometry":{"type":"Point","coordinates":[121.7168274,25.12623787]},"properties":{"圖徵編號":"101","agency":"財團法人中華民國佛教慈濟慈善事業基金會基隆市私立慈濟居家長照機構","data":"2022122811:33:51","county":"基隆市","town":"安樂區","address":"基隆市安樂區六合里樂利三街150號1樓","O_ABC":"B","Serve":"喘息服務","fax":"02-24326658","mail":"ltc000287@tzuchi.org.tw","name":"釋證嚴","建立時間":"2023/10/23 上午 12:14:01"}},{"type":"Feature","geometry":{"type":"Point","coordinates":[121.7615356,25.12850571]},"properties":{"圖徵編號":"102","agency":"財團法人伊甸社會福利基金會附設私立基隆居家式長期照顧服務機構","data":"2021030411:12:03","county":"基隆市","town":"信義區","address":"基隆市信義區信綠里東信路169號","O_ABC":"C","Serve":"巷弄長照站","fax":"02-24685707","mail":"eden1478@eden.org.tw","name":"羅紀?","建立時間":"2023/10/23 上午 12:14:01"}},{"type":"Feature","geometry":{"type":"Point","coordinates":[121.741806,25.12739182]},"properties":{"圖徵編號":"103","agency":"愛及德職能治療所","data":"2022020816:55:55","county":"基隆市","town":"仁愛區","address":"基隆市仁愛區林泉里愛三路9號","O_ABC":"B","Serve":"專業照護服務","fax":"0986-355003","mail":"pokeypeu@gmail.com","name":"張世杰","建立時間":"2023/10/23 上午 12:14:01"}},{"type":"Feature","geometry":{"type":"Point","coordinates":[121.7145767,25.12742043]},"properties":{"圖徵編號":"104","agency":"基隆市私立溫心社區長照機構","data":"2022122811:38:40","county":"基隆市","town":"安樂區","address":"基隆市安樂區六合里樂利三街207號1樓","O_ABC":"B","Serve":"家庭托顧服務","fax":"02-24317934","mail":"mayling221788@gmail.com","name":"李美鈴","建立時間":"2023/10/23 上午 12:14:01"}},{"type":"Feature","geometry":{"type":"Point","coordinates":[121.7635269,25.12721062]},"properties":{"圖徵編號":"105","agency":"基隆市信義區禮東社區發展協會","data":"2021032314:10:01","county":"基隆市","town":"信義區","address":"基隆市信義區禮東里東明路39巷18號1樓","O_ABC":"C","Serve":"巷弄長照站","fax":"0937-508-124","mail":"p24663733@gmail.com","name":"魏艷華","建立時間":"2023/10/23 上午 12:14:01"}},{"type":"Feature","geometry":{"type":"Point","coordinates":[121.7622375,25.12709808]},"properties":{"圖徵編號":"106","agency":"(基隆)正泰居家物理治療所","data":"2023080217:19:14","county":"基隆市","town":"信義區","address":"基隆市信義區禮東里東明路67巷18-2號","O_ABC":"B","Serve":"專業照護服務(CC01)","fax":"0953-325-979","mail":"Anita73711@yahoo.com.tw","name":"陳吟貞","建立時間":"2023/10/23 上午 12:14:01"}},{"type":"Feature","geometry":{"type":"Point","coordinates":[121.7524338,25.1278019]},"properties":{"圖徵編號":"107","agency":"居達健康事業有限公司附設基隆市私立居達居家長照機構","data":"2023020113:37:41","county":"基隆市","town":"仁愛區","address":"基隆市仁愛區花崗里仁一路133號12樓","O_ABC":"A","Serve":"個案管理服務","fax":"2425-5717","mail":"aoueshin@gmail.com","name":"沈哲宇","建立時間":"2023/10/23 上午 12:14:01"}},{"type":"Feature","geometry":{"type":"Point","coordinates":[121.7524338,25.1278019]},"properties":{"圖徵編號":"108","agency":"居達健康事業有限公司附設基隆市私立居達居家長照機構","data":"2022122811:34:06","county":"基隆市","town":"仁愛區","address":"基隆市仁愛區花崗里仁一路133號12樓","O_ABC":"B","Serve":"居家服務","fax":"2425-5717","mail":"aoueshin@gmail.com","name":"沈哲宇","建立時間":"2023/10/23 上午 12:14:01"}},{"type":"Feature","geometry":{"type":"Point","coordinates":[121.7620239,25.1295948]},"properties":{"圖徵編號":"109","agency":"基隆市立醫院護理之家附設日照中心","data":"2022122812:00:31","county":"基隆市","town":"信義區","address":"基隆市信義區信綠里東信路282號","O_ABC":"B","Serve":"喘息服務","fax":"2465-2141","mail":"hsant.ann@gmail.com","name":"王慧珺","建立時間":"2023/10/23 上午 12:14:01"}},{"type":"Feature","geometry":{"type":"Point","coordinates":[121.757515,25.09942627]},"properties":{"圖徵編號":"110","agency":"碇內診所","data":"2023060615:03:31","county":"基隆市","town":"暖暖區","address":"基隆市暖暖區碇內里源遠路323號","O_ABC":"B","Serve":"居家失能個案家庭醫師照護服務","fax":"(02)24595878","mail":"spwan0715@gmail.com","name":"萬學平","建立時間":"2023/10/23 上午 12:14:01"}},{"type":"Feature","geometry":{"type":"Point","coordinates":[121.7349777,25.13357162]},"properties":{"圖徵編號":"111","agency":"有限責任基隆市第一照顧服務勞動合作社附設基隆市私立第一居家長照機構","data":"2022112211:43:39","county":"基隆市","town":"中山區","address":"基隆市中山區西榮里9鄰西定路85之4號","O_ABC":"B","Serve":"喘息服務","fax":"02-24250679","mail":"we30061977@gmail.com","name":"溫秀嬌","建立時間":"2023/10/23 上午 12:14:01"}},{"type":"Feature","geometry":{"type":"Point","coordinates":[121.7148285,25.09752655]},"properties":{"圖徵編號":"112","agency":"惠安復健科診所","data":"2023060615:02:25","county":"基隆市","town":"七堵區","address":"基隆市七堵區正光里南興路12號2樓","O_ABC":"B","Serve":"居家失能個案家庭醫師照護服務","fax":"(02)24569908","mail":"lazuli28allen@gmail.com","name":"陳俊亨","建立時間":"2023/10/23 上午 12:14:01"}},{"type":"Feature","geometry":{"type":"Point","coordinates":[121.7510376,25.12787247]},"properties":{"圖徵編號":"113","agency":"贏養食沛有限公司附設基隆市私立大心社區式服務類長期照顧服務機構","data":"2022122816:36:46","county":"基隆市","town":"仁愛區","address":"基隆市仁愛區水錦里劉銘傳路1號5樓之1","O_ABC":"B","Serve":"日間照顧服務","fax":"02-24211568","mail":"dasinn68@gmail.com","name":"許睿慈","建立時間":"2023/10/23 上午 12:14:01"}},{"type":"Feature","geometry":{"type":"Point","coordinates":[121.7675323,25.12718582]},"properties":{"圖徵編號":"114","agency":"基隆市恩惠全人關懷協會","data":"2023020310:37:49","county":"基隆市","town":"信義區","address":"基隆市信義區東安里東信路3巷34號","O_ABC":"B","Serve":"營養餐飲服務","fax":"02-2465-0910","mail":"ehc316@gmail.com","name":"徐菊英","建立時間":"2023/10/23 上午 12:14:01"}},{"type":"Feature","geometry":{"type":"Point","coordinates":[121.7660065,25.15527534]},"properties":{"圖徵編號":"115","agency":"基隆市中正區社寮社區發展協會","data":"2021050514:04:29","county":"基隆市","town":"中正區","address":"基隆市中正區社寮里平一路6號","O_ABC":"C","Serve":"巷弄長照站","fax":"024-622-498","mail":"liu07155@hotmail.com","name":"劉維城","建立時間":"2023/10/23 上午 12:14:01"}},{"type":"Feature","geometry":{"type":"Point","coordinates":[121.7913437,25.12389565]},"properties":{"圖徵編號":"116","agency":"基隆市私立信賴居家長照機構","data":"2022122811:34:38","county":"基隆市","town":"信義區","address":"基隆市信義區孝岡里深澳坑路137之40號5樓","O_ABC":"B","Serve":"居家服務","fax":"02-24660003","mail":"sinlaiabc@gmail.com","name":"賴俊龍","建立時間":"2023/10/23 上午 12:14:01"}},{"type":"Feature","geometry":{"type":"Point","coordinates":[121.7537003,25.09598541]},"properties":{"圖徵編號":"117","agency":"基隆市暖暖區碇內社區發展協會","data":"2023060216:15:22","county":"基隆市","town":"暖暖區","address":"基隆市暖暖區碇內里暖碇路15巷136號","O_ABC":"C","Serve":"巷弄長照站","fax":"024-595-108","mail":"pudding1234554321@yahoo.com.tw","name":"林煌輝","建立時間":"2023/10/23 上午 12:14:01"}},{"type":"Feature","geometry":{"type":"Point","coordinates":[121.7109604,25.09536934]},"properties":{"圖徵編號":"118","agency":"基隆市私立無量壽老人養護中心","data":"2021042713:26:49","county":"基隆市","town":"七堵區","address":"基隆市七堵區正明里開元路140號","O_ABC":"B","Serve":"喘息服務","fax":"0224-555-167","mail":"liangsouwu@yahoo.com.tw","name":"楊德芳","建立時間":"2023/10/23 上午 12:14:01"}},{"type":"Feature","geometry":{"type":"Point","coordinates":[121.6972656,25.08562088]},"properties":{"圖徵編號":"119","agency":"采宣股份有限公司附設基隆市私立采宣居家式服務類長期照顧服務機構","data":"2022122811:33:28","county":"基隆市","town":"七堵區","address":"基隆市七堵區百福里百六街111號","O_ABC":"B","Serve":"居家服務","fax":"02-24510380","mail":"myteamcare@gmail.com","name":"朱秋蓉","建立時間":"2023/10/23 上午 12:14:01"}},{"type":"Feature","geometry":{"type":"Point","coordinates":[121.7523804,25.1249485]},"properties":{"圖徵編號":"120","agency":"康合診所","data":"2023060615:04:27","county":"基隆市","town":"仁愛區","address":"基隆市仁愛區花崗里復興街64巷17號1樓","O_ABC":"B","Serve":"居家失能個案家庭醫師照護服務","fax":"(02)24592200","mail":"kh950701@kimo.com","name":"李祥和","建立時間":"2023/10/23 上午 12:14:01"}},{"type":"Feature","geometry":{"type":"Point","coordinates":[121.7675323,25.12718582]},"properties":{"圖徵編號":"121","agency":"基隆市恩惠全人關懷協會(七堵分會)","data":"2023020310:38:34","county":"基隆市","town":"七堵區","address":"基隆市七堵區堵北里百三街26號","O_ABC":"B","Serve":"營養餐飲服務","fax":"02-2466-0210","mail":"ehc316@gmail.com","name":"唐國年","建立時間":"2023/10/23 上午 12:14:01"}},{"type":"Feature","geometry":{"type":"Point","coordinates":[121.7408066,25.13708687]},"properties":{"圖徵編號":"122","agency":"基隆市中山區中興里辦公處","data":"2021032314:28:48","county":"基隆市","town":"中山區","address":"基隆市中山區中興里中山二路11號","O_ABC":"C","Serve":"巷弄長照站","fax":"2428-2920","mail":"hopeandsweet@gmail.com","name":"李進發","建立時間":"2023/10/23 上午 12:14:01"}},{"type":"Feature","geometry":{"type":"Point","coordinates":[121.7436295,25.12963295]},"properties":{"圖徵編號":"123","agency":"楊光復健診所","data":"2021030514:00:38","county":"基隆市","town":"仁愛區","address":"基隆市仁愛區仁德里愛三路120號4、5樓","O_ABC":"B","Serve":"居家失能個案家庭醫師照護服務","fax":"(02)24292288","mail":"yanghuang@mail2000.com.tw","name":"楊啟光","建立時間":"2023/10/23 上午 12:14:01"}},{"type":"Feature","geometry":{"type":"Point","coordinates":[121.7083893,25.1456852]},"properties":{"圖徵編號":"124","agency":"基隆市私立順逸老人長期照顧中心(養護型)","data":"2023041111:19:22","county":"基隆市","town":"安樂區","address":"基隆市安樂區新崙里22鄰基金一路210巷58號","O_ABC":"B","Serve":"喘息服務","fax":"024-340-129","mail":"sy.nurse@msa.hinet.net","name":"簡淑芬","建立時間":"2023/10/23 上午 12:14:01"}},{"type":"Feature","geometry":{"type":"Point","coordinates":[121.7620316,25.12953949]},"properties":{"圖徵編號":"125","agency":"基隆市立醫院附設護理之家","data":"2021041314:33:32","county":"基隆市","town":"信義區","address":"基隆市信義區信綠里東信路282號","O_ABC":"B","Serve":"喘息服務","fax":"（02）2465-2141","mail":"eva920622@gmail.com","name":"鄭瓊娟","建立時間":"2023/10/23 上午 12:14:01"}},{"type":"Feature","geometry":{"type":"Point","coordinates":[121.7081451,25.08831406]},"properties":{"圖徵編號":"126","agency":"社團法人中華民國士林靈糧堂社會福利協會附設基隆市私立七堵綜合式服務類長期照顧服務機構","data":"2023030914:30:48","county":"基隆市","town":"七堵區","address":"基隆市七堵區永安里泰安路24之1號","O_ABC":"B","Serve":"小規模多機能服務","fax":"02-24516920","mail":"qidudaycare@slsc.org.tw","name":"劉群茂","建立時間":"2023/10/23 上午 12:14:01"}},{"type":"Feature","geometry":{"type":"Point","coordinates":[121.7547684,25.09406471]},"properties":{"圖徵編號":"127","agency":"基隆市暖暖區碇祥里辦公處","data":"2021032311:53:06","county":"基隆市","town":"暖暖區","address":"基隆市暖暖區碇祥里碇內街25號4樓","O_ABC":"C","Serve":"巷弄長照站","fax":"02-2457-8540","mail":"k732alex3080319@yahoo，com.tw","name":"馮瑞枝","建立時間":"2023/10/23 上午 12:14:01"}},{"type":"Feature","geometry":{"type":"Point","coordinates":[121.7223358,25.12110519]},"properties":{"圖徵編號":"128","agency":"長庚醫療財團法人附設基隆居家護理所","data":"2022021813:12:37","county":"基隆市","town":"安樂區","address":"基隆市安樂區鶯歌里麥金路222號","O_ABC":"B","Serve":"專業照護服務","fax":"024-313-131","mail":"aorn5555@cgmh.org.tw","name":"洪淑萍","建立時間":"2023/10/23 上午 12:14:01"}},{"type":"Feature","geometry":{"type":"Point","coordinates":[121.7533493,25.12843132]},"properties":{"圖徵編號":"129","agency":"社團法人中華民國士林靈糧堂社會福利協會附設基隆市私立信義社區式服務類長期照顧服務機構","data":"2022122816:37:44","county":"基隆市","town":"信義區","address":"基隆市信義區義幸里信一路57號3樓","O_ABC":"B","Serve":"日間照顧服務","fax":"02-24251360","mail":"kee-xinyi.dc@slsc.org.tw","name":"劉群茂","建立時間":"2023/10/23 上午 12:14:01"}},{"type":"Feature","geometry":{"type":"Point","coordinates":[121.7385101,25.13363457]},"properties":{"圖徵編號":"130","agency":"基隆市中山區中山里辦公處","data":"2021032314:05:10","county":"基隆市","town":"中山區","address":"基隆市中山區中山里中山一路189巷34號","O_ABC":"C","Serve":"巷弄長照站","fax":"024-226-871","mail":"mico_four@hotmail.com","name":"羅予廷","建立時間":"2023/10/23 上午 12:14:01"}},{"type":"Feature","geometry":{"type":"Point","coordinates":[121.7556305,25.09952736]},"properties":{"圖徵編號":"131","agency":"基隆市財團法人中華基督教碇內浸信會","data":"2023020310:44:12","county":"基隆市","town":"暖暖區","address":"基隆市暖暖區碇安里源遠路277巷25-1號","O_ABC":"B","Serve":"營養餐飲服務","fax":"02-2458-7641","mail":"ellenchen839@hotmail.com","name":"宣承義","建立時間":"2023/10/23 上午 12:14:01"}},{"type":"Feature","geometry":{"type":"Point","coordinates":[121.768692,25.15449524]},"properties":{"圖徵編號":"132","agency":"基隆市安樂區七賢社區發展協會","data":"2021032314:08:05","county":"基隆市","town":"安樂區","address":"基隆市安樂區七賢里安和一路6巷85-1號","O_ABC":"C","Serve":"巷弄長照站","fax":"2432-3497","mail":"jackcheng@skl.com.tw","name":"黃玉芳","建立時間":"2023/10/23 上午 12:14:01"}},{"type":"Feature","geometry":{"type":"Point","coordinates":[120.2934188,22.6688531]},"properties":{"圖徵編號":"133","agency":"基隆市政府委託社團法人中華民國士林靈糧堂社會福利協會經營管理基隆市中正社區式長期照顧服務機構","data":"2023030913:35:50","county":"基隆市","town":"中正區","address":"基隆市中正區中船里中船路11號4樓","O_ABC":"B","Serve":"喘息服務","fax":"024-225-570","mail":"kldaycare@slsc.org.tw","name":"劉群茂","建立時間":"2023/10/23 上午 12:14:01"}},{"type":"Feature","geometry":{"type":"Point","coordinates":[121.5222656,25.1222532]},"properties":{"圖徵編號":"134","agency":"基隆市城上城發展協會","data":"2021032313:45:08","county":"基隆市","town":"安樂區","address":"基隆市安樂區鶯歌里麥金路247號6樓","O_ABC":"C","Serve":"巷弄長照站","fax":"024-311-235","mail":"MEIGIN0820@GMAIL.COM","name":"吳美錦","建立時間":"2023/10/23 上午 12:14:01"}},{"type":"Feature","geometry":{"type":"Point","coordinates":[121.7544556,25.12751961]},"properties":{"圖徵編號":"135","agency":"基隆市信義區智慧社區發展協會","data":"2021032314:10:40","county":"基隆市","town":"信義區","address":"基隆市信義區智慧里仁一路7巷61號","O_ABC":"C","Serve":"巷弄長照站","fax":"2425-1962","mail":"iow4428@yahoo.com.tw","name":"郭建皇","建立時間":"2023/10/23 上午 12:14:01"}},{"type":"Feature","geometry":{"type":"Point","coordinates":[121.73526,25.13363838]},"properties":{"圖徵編號":"136","agency":"基隆市中山區西華社區發展協會","data":"2021032314:01:39","county":"基隆市","town":"中山區","address":"基隆市中山區西華里西定路102號","O_ABC":"C","Serve":"巷弄長照站","fax":"0920-926-622","mail":"yangsongying@gmail.com","name":"楊松穎","建立時間":"2023/10/23 上午 12:14:01"}},{"type":"Feature","geometry":{"type":"Point","coordinates":[121.7372208,25.13155365]},"properties":{"圖徵編號":"137","agency":"基隆中山區安平里辦公處","data":"2021032313:48:01","county":"基隆市","town":"中山區","address":"基隆市中山區安平里安一路16號","O_ABC":"C","Serve":"巷弄長照站","fax":"024-235-071","mail":"yang361104@gmail.com","name":"楊榮豐","建立時間":"2023/10/23 上午 12:14:01"}},{"type":"Feature","geometry":{"type":"Point","coordinates":[121.7620239,25.1295948]},"properties":{"圖徵編號":"138","agency":"基隆市立醫院","data":"2023060615:09:15","county":"基隆市","town":"信義區","address":"基隆市信義區信綠里東信路２８２號","O_ABC":"B","Serve":"喘息服務","fax":"0224652141","mail":"zu@kmh.gov.tw","name":"王慧珺","建立時間":"2023/10/23 上午 12:14:01"}},{"type":"Feature","geometry":{"type":"Point","coordinates":[121.7556305,25.09952736]},"properties":{"圖徵編號":"139","agency":"基隆市財團法人中華基督教碇內浸信會","data":"2021032314:11:50","county":"基隆市","town":"暖暖區","address":"基隆市暖暖區碇安里源遠路277巷25-1號","O_ABC":"C","Serve":"巷弄長照站","fax":"02-2458-7641","mail":"ellenchen839@hotmail.com","name":"宣承義","建立時間":"2023/10/23 上午 12:14:01"}},{"type":"Feature","geometry":{"type":"Point","coordinates":[121.7407608,25.13723564]},"properties":{"圖徵編號":"140","agency":"基隆市中山區衛生所","data":"2022031810:32:19","county":"基隆市","town":"中山區","address":"基隆市中山區中興里中山二路15號","O_ABC":"B","Serve":"喘息服務","fax":"024-285-074","mail":"weihan@klchb.gov.tw","name":"張文龍","建立時間":"2023/10/23 上午 12:14:01"}},{"type":"Feature","geometry":{"type":"Point","coordinates":[121.7419968,25.12487412]},"properties":{"圖徵編號":"141","agency":"基隆市仁愛區崇文社區發展協會","data":"2021032314:25:59","county":"基隆市","town":"仁愛區","address":"基隆市仁愛區崇文里龍安街146-1號","O_ABC":"C","Serve":"巷弄長照站","fax":"0930-768703","mail":"ak.kee@msa.hinet.net","name":"吳欣宇","建立時間":"2023/10/23 上午 12:14:01"}},{"type":"Feature","geometry":{"type":"Point","coordinates":[121.7145767,25.12742043]},"properties":{"圖徵編號":"142","agency":"基隆市私立溫心社區長照機構","data":"2022122811:35:02","county":"基隆市","town":"安樂區","address":"基隆市安樂區六合里樂利三街207號1樓","O_ABC":"B","Serve":"家庭托顧服務","fax":"02-24317934","mail":"mayling221788@gmail.com","name":"李美鈴","建立時間":"2023/10/23 上午 12:14:01"}},{"type":"Feature","geometry":{"type":"Point","coordinates":[121.7615356,25.12850571]},"properties":{"圖徵編號":"143","agency":"財團法人伊甸社會福利基金會附設私立基隆居家式長期照顧服務機構","data":"2022122811:30:51","county":"基隆市","town":"信義區","address":"基隆市信義區信綠里東信路169號","O_ABC":"B","Serve":"居家服務","fax":"02-24685707","mail":"eden1478@eden.org.tw","name":"羅紀?","建立時間":"2023/10/23 上午 12:14:01"}},{"type":"Feature","geometry":{"type":"Point","coordinates":[121.7425537,25.12583351]},"properties":{"圖徵編號":"144","agency":"基隆市私立安泰護理之家","data":"2021042713:27:20","county":"基隆市","town":"仁愛區","address":"基隆市仁愛區崇文里南榮路16-1號3樓、4樓、5樓、6樓、7樓、8樓、10樓、12樓","O_ABC":"B","Serve":"喘息服務","fax":"02-24293737#211","mail":"julia6y@ms45.hinet.net","name":"葉惠萍","建立時間":"2023/10/23 上午 12:14:01"}},{"type":"Feature","geometry":{"type":"Point","coordinates":[121.7619858,25.12960625]},"properties":{"圖徵編號":"145","agency":"基隆市立醫院附設護理之家(日間照顧)","data":"2021030510:05:57","county":"基隆市","town":"信義區","address":"基隆市信義區信綠里東信路282號","O_ABC":"B","Serve":"喘息服務","fax":"2465-2141","mail":"hsant.ann@gmail.com","name":"王慧珺","建立時間":"2023/10/23 上午 12:14:01"}},{"type":"Feature","geometry":{"type":"Point","coordinates":[121.7675323,25.12718582]},"properties":{"圖徵編號":"146","agency":"基隆市恩惠全人關懷協會","data":"2023020310:40:26","county":"基隆市","town":"信義區","address":"基隆市信義區東安里東信路3巷34號","O_ABC":"B","Serve":"交通接送服務","fax":"02-2465-0910","mail":"ehc316@gmail.com","name":"徐菊英","建立時間":"2023/10/23 上午 12:14:01"}},{"type":"Feature","geometry":{"type":"Point","coordinates":[121.7486877,25.12733078]},"properties":{"圖徵編號":"147","agency":"基隆市飛鷹生命關懷協會","data":"2023020310:43:02","county":"基隆市","town":"仁愛區","address":"基隆市仁愛區延平街11號","O_ABC":"B","Serve":"營養餐飲服務","fax":"02-2468-5802","mail":"ehc316@gmail.com","name":"胡發宗","建立時間":"2023/10/23 上午 12:14:01"}},{"type":"Feature","geometry":{"type":"Point","coordinates":[121.7782974,25.13584137]},"properties":{"圖徵編號":"148","agency":"政達物理治療所","data":"2022070808:53:14","county":"基隆市","town":"信義區","address":"基隆市信義區孝忠里教忠街88號","O_ABC":"B","Serve":"專業照護服務","fax":"0961-166226","mail":"dadahome0918@yahoo.com.tw","name":"謝政達","建立時間":"2023/10/23 上午 12:14:01"}},{"type":"Feature","geometry":{"type":"Point","coordinates":[121.7394485,25.12890816]},"properties":{"圖徵編號":"149","agency":"誠寶有限公司附設基隆市私立誠寶居家長照機構","data":"2021031715:45:32","county":"基隆市","town":"仁愛區","address":"基隆市仁愛區同風里孝二路39號7樓之7","O_ABC":"B","Serve":"喘息服務","fax":"02-66377379","mail":"moneycastle168@gmail.com","name":"江志偉","建立時間":"2023/10/23 上午 12:14:01"}},{"type":"Feature","geometry":{"type":"Point","coordinates":[121.7615356,25.12850571]},"properties":{"圖徵編號":"150","agency":"財團法人伊甸社會福利基金會","data":"2023020113:29:08","county":"基隆市","town":"信義區","address":"基隆市信義區信綠里東信路169號4樓","O_ABC":"A","Serve":"個案管理服務","fax":"024-680-267","mail":"9660@eden.org.tw","name":"羅紀?","建立時間":"2023/10/23 上午 12:14:01"}},{"type":"Feature","geometry":{"type":"Point","coordinates":[121.7158279,25.09745789]},"properties":{"圖徵編號":"151","agency":"基隆市七堵區衛生所","data":"2021030410:46:55","county":"基隆市","town":"七堵區","address":"基隆市七堵區正光里光明路21號1樓之1","O_ABC":"C","Serve":"巷弄長照站","fax":"024-562-008","mail":"andy0912@mail.klcg.gov.tw","name":"曾明珠","建立時間":"2023/10/23 上午 12:14:01"}},{"type":"Feature","geometry":{"type":"Point","coordinates":[121.7518768,25.12859154]},"properties":{"圖徵編號":"152","agency":"基隆市信義區衛生所","data":"2021030410:41:33","county":"基隆市","town":"信義區","address":"基隆市信義區義昭里信一路69號","O_ABC":"C","Serve":"巷弄長照站","fax":"024-221-633","mail":"miranda@mail.klcg.gov.tw","name":"陳淑倩","建立時間":"2023/10/23 上午 12:14:01"}},{"type":"Feature","geometry":{"type":"Point","coordinates":[121.7447891,25.13093376]},"properties":{"圖徵編號":"153","agency":"社團法人中華詠愛全人關懷協會","data":"2021032313:56:58","county":"基隆市","town":"中正區","address":"基隆市中正區港通里信一路177號","O_ABC":"C","Serve":"巷弄長照站","fax":"02-2421-2036","mail":"happyyuhjiun@gmail.com","name":"周學仁","建立時間":"2023/10/23 上午 12:14:01"}},{"type":"Feature","geometry":{"type":"Point","coordinates":[121.7481842,25.08330536]},"properties":{"圖徵編號":"154","agency":"基隆市私立松濤老人長期照顧中心(養護型)","data":"2021042713:26:16","county":"基隆市","town":"暖暖區","address":"基隆市暖暖區暖西里東勢街6之46號4樓","O_ABC":"B","Serve":"喘息服務","fax":"02-2457-1397","mail":"lu292008@gmail.com","name":"呂俍鈺","建立時間":"2023/10/23 上午 12:14:01"}},{"type":"Feature","geometry":{"type":"Point","coordinates":[121.7124405,25.09646988]},"properties":{"圖徵編號":"155","agency":"康博診所","data":"2021030513:58:15","county":"基隆市","town":"七堵區","address":"基隆市七堵區正明里南興路99號","O_ABC":"B","Serve":"居家失能個案家庭醫師照護服務","fax":"(02)24568800","mail":"kombo588@gmail.com","name":"梁國強","建立時間":"2023/10/23 上午 12:14:01"}},{"type":"Feature","geometry":{"type":"Point","coordinates":[121.7510376,25.12787247]},"properties":{"圖徵編號":"156","agency":"贏養食沛有限公司附設基隆市私立大心社區式服務類長期照顧服務機構","data":"2023092110:54:58","county":"基隆市","town":"仁愛區","address":"基隆市仁愛區水錦里劉銘傳路1號5樓之1","O_ABC":"A","Serve":"個案管理服務","fax":"02-24211568","mail":"dasinn68@gmail.com","name":"許睿慈","建立時間":"2023/10/23 上午 12:14:01"}},{"type":"Feature","geometry":{"type":"Point","coordinates":[121.7669754,25.12775612]},"properties":{"圖徵編號":"157","agency":"基隆市信義區東明社區發展協會","data":"2021050514:07:44","county":"基隆市","town":"信義區","address":"基隆市信義區東明里東光路4-10號","O_ABC":"C","Serve":"巷弄長照站","fax":"02-2465-1989","mail":"wtypc3699@gmail.com","name":"賴賢義","建立時間":"2023/10/23 上午 12:14:01"}},{"type":"Feature","geometry":{"type":"Point","coordinates":[121.7619858,25.12960625]},"properties":{"圖徵編號":"158","agency":"基隆市立醫院附設護理之家(日間照顧)","data":"2021030510:05:57","county":"基隆市","town":"信義區","address":"基隆市信義區信綠里東信路282號","O_ABC":"B","Serve":"日間照顧服務","fax":"2465-2141","mail":"hsant.ann@gmail.com","name":"王慧珺","建立時間":"2023/10/23 上午 12:14:01"}},{"type":"Feature","geometry":{"type":"Point","coordinates":[121.7953415,25.13975143]},"properties":{"圖徵編號":"159","agency":"林承興診所","data":"2023060614:57:37","county":"基隆市","town":"中正區","address":"基隆市中正區碧砂里北寧路319號","O_ABC":"B","Serve":"居家失能個案家庭醫師照護服務","fax":"(02)24694199","mail":"cclmc@ms12.hinet.net","name":"林承興","建立時間":"2023/10/23 上午 12:14:01"}},{"type":"Feature","geometry":{"type":"Point","coordinates":[121.7226257,25.12477303]},"properties":{"圖徵編號":"160","agency":"基隆市安樂區三民社區發展協會","data":"2021032314:08:48","county":"基隆市","town":"安樂區","address":"基隆市安樂區三民里安和一街386號","O_ABC":"C","Serve":"巷弄長照站","fax":"0932-259-846","mail":"owena435@gmail.com","name":"陳善煜","建立時間":"2023/10/23 上午 12:14:01"}},{"type":"Feature","geometry":{"type":"Point","coordinates":[121.7483215,25.13045502]},"properties":{"圖徵編號":"161","agency":"衛生福利部基隆醫院附設居家護理","data":"2021030509:58:20","county":"基隆市","town":"信義區","address":"基隆市信義區信綠里信二路２６８號","O_ABC":"B","Serve":"專業照護服務","fax":"0224-292-525","mail":"nursehc@kln.mohw.gov.tw","name":"彭群惠","建立時間":"2023/10/23 上午 12:14:01"}},{"type":"Feature","geometry":{"type":"Point","coordinates":[121.7168274,25.12623787]},"properties":{"圖徵編號":"162","agency":"財團法人中華民國佛教慈濟慈善事業基金會基隆市私立慈濟居家長照機構","data":"2022122811:33:51","county":"基隆市","town":"安樂區","address":"基隆市安樂區六合里樂利三街150號1樓","O_ABC":"B","Serve":"居家服務","fax":"02-24326658","mail":"ltc000287@tzuchi.org.tw","name":"釋證嚴","建立時間":"2023/10/23 上午 12:14:01"}},{"type":"Feature","geometry":{"type":"Point","coordinates":[121.7287445,25.13413239]},"properties":{"圖徵編號":"163","agency":"財團法人天下為公社會福利慈善事業基金會附設基隆市私立天下為公居家長照機構","data":"2022042714:57:11","county":"基隆市","town":"安樂區","address":"基隆市安樂區干城里安一路329-1號","O_ABC":"B","Serve":"居家服務","fax":"02-24283696","mail":"a71001585@hangan.org","name":"胡世賢","建立時間":"2023/10/23 上午 12:14:01"}},{"type":"Feature","geometry":{"type":"Point","coordinates":[121.7524338,25.1278019]},"properties":{"圖徵編號":"164","agency":"安馨居家護理機構","data":"2023060216:17:48","county":"基隆市","town":"仁愛區","address":"基隆市仁愛區花崗里仁一路133號12樓之3","O_ABC":"B","Serve":"專業照護服務","fax":"02-2465-5900","mail":"anxinnurse@gmail.com","name":"林祺芳","建立時間":"2023/10/23 上午 12:14:01"}},{"type":"Feature","geometry":{"type":"Point","coordinates":[121.7639236,25.14196777]},"properties":{"圖徵編號":"165","agency":"基隆市中正區砂灣社區發展協會","data":"2021032314:27:01","county":"基隆市","town":"中正區","address":"基隆市中正區砂灣里祥豐街66號2-4樓","O_ABC":"C","Serve":"巷弄長照站","fax":"2463-6523","mail":"tony1953a@yahoo.com.tw","name":"簡曉東","建立時間":"2023/10/23 上午 12:14:01"}},{"type":"Feature","geometry":{"type":"Point","coordinates":[121.7537003,25.09598541]},"properties":{"圖徵編號":"166","agency":"基隆市暖暖區碇內社區發展協會","data":"2023060216:15:22","county":"基隆市","town":"暖暖區","address":"基隆市暖暖區碇內里暖碇路15巷136號","O_ABC":"B","Serve":"喘息服務","fax":"024-595-108","mail":"pudding1234554321@yahoo.com.tw","name":"林煌輝","建立時間":"2023/10/23 上午 12:14:01"}},{"type":"Feature","geometry":{"type":"Point","coordinates":[121.7158279,25.09745789]},"properties":{"圖徵編號":"167","agency":"基隆市七堵區衛生所","data":"2022031114:47:20","county":"基隆市","town":"七堵區","address":"基隆市七堵區正光里光明路21號1樓之1","O_ABC":"B","Serve":"喘息服務","fax":"024-562-008","mail":"andy0912@mail.klcg.gov.tw","name":"曾明珠","建立時間":"2023/10/23 上午 12:14:01"}},{"type":"Feature","geometry":{"type":"Point","coordinates":[121.7389908,25.13044357]},"properties":{"圖徵編號":"168","agency":"基隆市私立仁安老人長期照顧中心（養護型）","data":"2023011615:24:52","county":"基隆市","town":"仁愛區","address":"基隆市仁愛區文昌里6鄰忠二路55號5樓","O_ABC":"B","Serve":"喘息服務","fax":"2427-6692","mail":"kuanlong1206@gmail.com","name":"楊松烈","建立時間":"2023/10/23 上午 12:14:01"}},{"type":"Feature","geometry":{"type":"Point","coordinates":[121.7521286,25.08842278]},"properties":{"圖徵編號":"169","agency":"基隆市私立梅莉樂活社區長照機構","data":"2022122811:35:17","county":"基隆市","town":"暖暖區","address":"基隆市暖暖區碇祥里碇內街484號6樓","O_ABC":"B","Serve":"家庭托顧服務","fax":"02-24582050","mail":"coldtoby@gmail.com","name":"黎深毅","建立時間":"2023/10/23 上午 12:14:01"}},{"type":"Feature","geometry":{"type":"Point","coordinates":[121.695282,25.08335495]},"properties":{"圖徵編號":"170","agency":"基隆市七堵區堵北里辦公處","data":"2021032313:59:16","county":"基隆市","town":"七堵區","address":"基隆市七堵區堵北里福一街136號","O_ABC":"C","Serve":"巷弄長照站","fax":"2451-7110","mail":"cutemom59@yahoo.com.tw","name":"林俊德","建立時間":"2023/10/23 上午 12:14:01"}},{"type":"Feature","geometry":{"type":"Point","coordinates":[121.743782,25.12436295]},"properties":{"圖徵編號":"171","agency":"基隆市仁愛區誠仁社區發展協會","data":"2021032314:17:43","county":"基隆市","town":"仁愛區","address":"基隆市仁愛區誠仁里南榮路161巷19號","O_ABC":"C","Serve":"巷弄長照站","fax":"2428-5096","mail":"yiwen@cufa.edu.tw","name":"洪棟全","建立時間":"2023/10/23 上午 12:14:01"}},{"type":"Feature","geometry":{"type":"Point","coordinates":[121.7002945,25.08101273]},"properties":{"圖徵編號":"172","agency":"基隆市七堵區實踐里辦公處","data":"2021032311:47:05","county":"基隆市","town":"七堵區","address":"基隆市七堵區實踐里百一街52號","O_ABC":"C","Serve":"巷弄長照站","fax":"2451-8581","mail":"c518581@yahoo.com.tw","name":"吳麗如","建立時間":"2023/10/23 上午 12:14:01"}},{"type":"Feature","geometry":{"type":"Point","coordinates":[121.741806,25.12739182]},"properties":{"圖徵編號":"173","agency":"愛及德職能治療所","data":"2023020113:38:02","county":"基隆市","town":"仁愛區","address":"基隆市仁愛區林泉里愛三路9號","O_ABC":"A","Serve":"個案管理服務","fax":"0986-355003","mail":"pokeypeu@gmail.com","name":"張世杰","建立時間":"2023/10/23 上午 12:14:01"}},{"type":"Feature","geometry":{"type":"Point","coordinates":[121.7232056,25.12103081]},"properties":{"圖徵編號":"174","agency":"基隆市安樂區衛生所","data":"2021030410:50:37","county":"基隆市","town":"安樂區","address":"基隆市安樂區鶯歌里安樂路二段164號","O_ABC":"C","Serve":"巷弄長照站","fax":"24318061#103","mail":"luna1032@klchb.gov.tw","name":"李炯宗","建立時間":"2023/10/23 上午 12:14:01"}},{"type":"Feature","geometry":{"type":"Point","coordinates":[121.7383652,25.10472488]},"properties":{"圖徵編號":"175","agency":"基隆市暖暖區過港社區發展協會","data":"2023051015:45:11","county":"基隆市","town":"暖暖區","address":"基隆市暖暖區過港里過港路54號","O_ABC":"B","Serve":"喘息服務","fax":"02-24588802","mail":"peter830622@yahoo.com.tw","name":"成耀民","建立時間":"2023/10/23 上午 12:14:01"}},{"type":"Feature","geometry":{"type":"Point","coordinates":[121.7365417,25.0989666]},"properties":{"圖徵編號":"176","agency":"基隆市暖暖區衛生所","data":"2021030410:42:58","county":"基隆市","town":"暖暖區","address":"基隆市暖暖區暖暖里暖暖街281巷98號","O_ABC":"C","Serve":"巷弄長照站","fax":"024-572-630","mail":"fang0330@klchb.gov.tw","name":"吳美慧","建立時間":"2023/10/23 上午 12:14:01"}},{"type":"Feature","geometry":{"type":"Point","coordinates":[121.7287445,25.13413239]},"properties":{"圖徵編號":"177","agency":"財團法人天下為公社會福利慈善事業基金會附設基隆市私立天下為公居家長照機構","data":"2023082809:39:28","county":"基隆市","town":"安樂區","address":"基隆市安樂區干城里安一路329-1號","O_ABC":"B","Serve":"喘息服務","fax":"02-24283696","mail":"a71001585@hangan.org","name":"胡世賢","建立時間":"2023/10/23 上午 12:14:01"}},{"type":"Feature","geometry":{"type":"Point","coordinates":[121.7127457,25.09576416]},"properties":{"圖徵編號":"178","agency":"紀醫師診所","data":"2023060614:58:43","county":"基隆市","town":"七堵區","address":"基隆市七堵區正明里開元路83號","O_ABC":"B","Serve":"居家失能個案家庭醫師照護服務","fax":"(02)24554195","mail":"a0932162689@gmail.com","name":"紀乃正","建立時間":"2023/10/23 上午 12:14:01"}},{"type":"Feature","geometry":{"type":"Point","coordinates":[121.7232056,25.12103081]},"properties":{"圖徵編號":"179","agency":"基隆市安樂區衛生所","data":"2022031413:48:56","county":"基隆市","town":"安樂區","address":"基隆市安樂區鶯歌里安樂路二段164號","O_ABC":"B","Serve":"喘息服務","fax":"24318061#103","mail":"luna1032@klchb.gov.tw","name":"李炯宗","建立時間":"2023/10/23 上午 12:14:01"}},{"type":"Feature","geometry":{"type":"Point","coordinates":[121.7139664,25.12755585]},"properties":{"圖徵編號":"180","agency":"基隆市私立志心老人長期照顧中心(養護型)","data":"2021060413:12:14","county":"基隆市","town":"安樂區","address":"基隆市安樂區六合里樂利三街189、193號1樓","O_ABC":"B","Serve":"喘息服務","fax":"02-2432-3059","mail":"jrshinshin02@gmail.com","name":"吳靜宜","建立時間":"2023/10/23 上午 12:14:01"}},{"type":"Feature","geometry":{"type":"Point","coordinates":[121.7475433,25.13302612]},"properties":{"圖徵編號":"181","agency":"社團法人台灣喜信家庭關懷協會(基隆辦事處)","data":"2021062917:20:21","county":"基隆市","town":"中正區","address":"基隆市中正區正義里正義路68號","O_ABC":"C","Serve":"巷弄長照站","fax":"0224-248-711","mail":"hsieh53@gmail.com","name":"黃淑美","建立時間":"2023/10/23 上午 12:14:01"}},{"type":"Feature","geometry":{"type":"Point","coordinates":[121.7470932,25.13535881]},"properties":{"圖徵編號":"182","agency":"寶珠職能治療所","data":"2023031409:28:38","county":"基隆市","town":"中正區","address":"基隆市中正區義一路111號3樓","O_ABC":"B","Serve":"專業照護服務","fax":"024-256-090","mail":"baozhucare@gmail.com","name":"伍祐鼎","建立時間":"2023/10/23 上午 12:14:01"}},{"type":"Feature","geometry":{"type":"Point","coordinates":[120.4833069,23.4781932]},"properties":{"圖徵編號":"183","agency":"基隆市政府委託社團法人中華民國士林靈糧堂社會福利協會經營管理基隆市中正社區式長期照顧服務機構","data":"2023010317:27:21","county":"基隆市","town":"中正區","address":"基隆市中正區中船里中船路11號4樓","O_ABC":"B","Serve":"小規模多機能服務","fax":"024-225-570","mail":"kldaycare@slsc.org.tw","name":"劉群茂","建立時間":"2023/10/23 上午 12:14:01"}},{"type":"Feature","geometry":{"type":"Point","coordinates":[121.7345428,25.14399147]},"properties":{"圖徵編號":"184","agency":"基隆市中山區居仁里辦公處","data":"2021032314:03:23","county":"基隆市","town":"中山區","address":"基隆市中山區居仁里通仁街162號","O_ABC":"C","Serve":"巷弄長照站","fax":"024-361-299","mail":"wha657@gmail.com","name":"鄭淑華","建立時間":"2023/10/23 上午 12:14:01"}},{"type":"Feature","geometry":{"type":"Point","coordinates":[121.7383652,25.10472488]},"properties":{"圖徵編號":"185","agency":"基隆市暖暖區過港社區發展協會","data":"2021030410:16:06","county":"基隆市","town":"暖暖區","address":"基隆市暖暖區過港里過港路54號","O_ABC":"B","Serve":"營養餐飲服務","fax":"02-24588802","mail":"peter830622@yahoo.com.tw","name":"成耀民","建立時間":"2023/10/23 上午 12:14:01"}},{"type":"Feature","geometry":{"type":"Point","coordinates":[121.7455826,25.1306324]},"properties":{"圖徵編號":"186","agency":"基隆市私立健安老人長期照顧中心(養護型)","data":"2022120514:53:55","county":"基隆市","town":"中正區","address":"基隆市中正區德義里5鄰義2路2巷9號、13號3樓","O_ABC":"B","Serve":"喘息服務","fax":"02-24229001","mail":"jianan.yanghu@gmail.com","name":"王南凱","建立時間":"2023/10/23 上午 12:14:01"}},{"type":"Feature","geometry":{"type":"Point","coordinates":[121.7442932,25.14262962]},"properties":{"圖徵編號":"187","agency":"基隆中山區和平里辦公處","data":"2021032313:49:14","county":"基隆市","town":"中山區","address":"基隆市中山區和平里中山三路103巷80號","O_ABC":"C","Serve":"巷弄長照站","fax":"024-361-950","mail":"keelung24246436@gmail.com","name":"張和妹","建立時間":"2023/10/23 上午 12:14:01"}},{"type":"Feature","geometry":{"type":"Point","coordinates":[121.7518768,25.12859154]},"properties":{"圖徵編號":"188","agency":"基隆市信義區衛生所","data":"2023091918:09:08","county":"基隆市","town":"信義區","address":"基隆市信義區義昭里信一路69號","O_ABC":"B","Serve":"喘息服務","fax":"024-221-633","mail":"miranda@mail.klcg.gov.tw","name":"陳淑倩","建立時間":"2023/10/23 上午 12:14:01"}},{"type":"Feature","geometry":{"type":"Point","coordinates":[121.7524338,25.1278019]},"properties":{"圖徵編號":"189","agency":"安馨居家護理機構","data":"2022041414:57:08","county":"基隆市","town":"仁愛區","address":"基隆市仁愛區花崗里仁一路133號12樓之3","O_ABC":"B","Serve":"專業照護服務","fax":"02-2465-5900","mail":"anxinnurse@gmail.com","name":"林祺芳","建立時間":"2023/10/23 上午 12:14:01"}},{"type":"Feature","geometry":{"type":"Point","coordinates":[121.7628403,25.12815857]},"properties":{"圖徵編號":"190","agency":"黃振國診所","data":"2023060614:55:53","county":"基隆市","town":"信義區","address":"基隆市信義區東信里東信路218號","O_ABC":"B","Serve":"居家失能個案家庭醫師照護服務","fax":"(02)24669255","mail":"a218@kimo.com","name":"黃振國","建立時間":"2023/10/23 上午 12:14:01"}},{"type":"Feature","geometry":{"type":"Point","coordinates":[121.7618103,25.14752388]},"properties":{"圖徵編號":"191","agency":"揚達交通企業有限公司","data":"2023011810:59:56","county":"基隆市","town":"中正區","address":"基隆市中正區中正路448號","O_ABC":"B","Serve":"交通接送服務","fax":"02-24631915","mail":"shfataxi@gmail.com","name":"高櫻雪","建立時間":"2023/10/23 上午 12:14:01"}},{"type":"Feature","geometry":{"type":"Point","coordinates":[121.7390366,25.13040924]},"properties":{"圖徵編號":"192","agency":"基隆市私立慈安老人長期照顧中心（養護型）","data":"2023011615:24:13","county":"基隆市","town":"仁愛區","address":"基隆市仁愛區文昌里6鄰忠二路55號4樓","O_ABC":"B","Serve":"喘息服務","fax":"2427-6592","mail":"zn24276592@yahoo.com.tw","name":"施冠榮","建立時間":"2023/10/23 上午 12:14:01"}},{"type":"Feature","geometry":{"type":"Point","coordinates":[121.7620239,25.1295948]},"properties":{"圖徵編號":"193","agency":"基隆市立醫院護理之家附設日照中心","data":"2022122812:00:31","county":"基隆市","town":"信義區","address":"基隆市信義區信綠里東信路282號","O_ABC":"B","Serve":"日間照顧服務","fax":"2465-2141","mail":"hsant.ann@gmail.com","name":"王慧珺","建立時間":"2023/10/23 上午 12:14:01"}},{"type":"Feature","geometry":{"type":"Point","coordinates":[121.7615356,25.12850571]},"properties":{"圖徵編號":"194","agency":"財團法人伊甸社會福利基金會附設私立基隆居家式長期照顧服務機構","data":"2023030914:35:10","county":"基隆市","town":"信義區","address":"基隆市信義區信綠里東信路169號","O_ABC":"B","Serve":"喘息服務","fax":"02-24685707","mail":"eden1478@eden.org.tw","name":"羅紀?","建立時間":"2023/10/23 上午 12:14:01"}},{"type":"Feature","geometry":{"type":"Point","coordinates":[121.7407608,25.13723564]},"properties":{"圖徵編號":"195","agency":"基隆市中山區衛生所","data":"2021030410:40:25","county":"基隆市","town":"中山區","address":"基隆市中山區中興里中山二路15號","O_ABC":"C","Serve":"巷弄長照站","fax":"024-285-074","mail":"weihan@klchb.gov.tw","name":"張文龍","建立時間":"2023/10/23 上午 12:14:01"}},{"type":"Feature","geometry":{"type":"Point","coordinates":[121.7394485,25.12890816]},"properties":{"圖徵編號":"196","agency":"誠寶有限公司附設基隆市私立誠寶居家長照機構","data":"2022122811:32:51","county":"基隆市","town":"仁愛區","address":"基隆市仁愛區同風里孝二路39號7樓之7","O_ABC":"B","Serve":"居家服務","fax":"02-66377379","mail":"moneycastle168@gmail.com","name":"江志偉","建立時間":"2023/10/23 上午 12:14:01"}},{"type":"Feature","geometry":{"type":"Point","coordinates":[121.7524338,25.1278019]},"properties":{"圖徵編號":"197","agency":"居達健康事業有限公司附設基隆市私立居達居家長照機構","data":"2023080217:19:14","county":"基隆市","town":"仁愛區","address":"基隆市仁愛區花崗里仁一路133號12樓","O_ABC":"B","Serve":"專業照護服務(CC01)","fax":"2425-5717","mail":"aoueshin@gmail.com","name":"沈哲宇","建立時間":"2023/10/23 上午 12:14:01"}},{"type":"Feature","geometry":{"type":"Point","coordinates":[121.7622375,25.12709808]},"properties":{"圖徵編號":"198","agency":"(基隆)正泰居家物理治療所","data":"2023052910:37:35","county":"基隆市","town":"信義區","address":"基隆市信義區禮東里東明路67巷18-2號","O_ABC":"B","Serve":"專業照護服務","fax":"0953-325-979","mail":"Anita73711@yahoo.com.tw","name":"陳吟貞","建立時間":"2023/10/23 上午 12:14:01"}},{"type":"Feature","geometry":{"type":"Point","coordinates":[121.7903671,25.13951874]},"properties":{"圖徵編號":"199","agency":"永信健康事業有限公司附設基隆市私立永信居家長照機構","data":"2023092111:10:52","county":"基隆市","town":"中正區","address":"基隆市中正區新豐街161巷102號","O_ABC":"A","Serve":"個案管理服務","fax":"02-24695151","mail":"yongsinabc@gmail.com","name":"賴俊龍","建立時間":"2023/10/23 上午 12:14:01"}},{"type":"Feature","geometry":{"type":"Point","coordinates":[121.7425537,25.12583351]},"properties":{"圖徵編號":"200","agency":"基隆市私立安泰護理之家","data":"2022123008:34:05","county":"基隆市","town":"仁愛區","address":"基隆市仁愛區崇文里南榮路16-1號3樓、4樓、5樓、6樓、7樓、8樓、10樓、12樓","O_ABC":"B","Serve":"營養餐飲服務","fax":"02-24293737#211","mail":"julia6y@ms45.hinet.net","name":"葉惠萍","建立時間":"2023/10/23 上午 12:14:01"}},{"type":"Feature","geometry":{"type":"Point","coordinates":[121.7903671,25.13951874]},"properties":{"圖徵編號":"201","agency":"信賴職能治療所(居家式)","data":"2022031710:33:23","county":"基隆市","town":"中正區","address":"基隆市中正區新豐街161巷102號","O_ABC":"B","Serve":"專業照護服務","fax":"02-2469-5151","mail":"sinlaiot@gmail.com","name":"賴俊龍","建立時間":"2023/10/23 上午 12:14:01"}},{"type":"Feature","geometry":{"type":"Point","coordinates":[121.741806,25.12739182]},"properties":{"圖徵編號":"202","agency":"愛及德職能治療所","data":"2023080217:19:14","county":"基隆市","town":"仁愛區","address":"基隆市仁愛區林泉里愛三路9號","O_ABC":"B","Serve":"專業照護服務(CC01)","fax":"0986-355003","mail":"pokeypeu@gmail.com","name":"張世杰","建立時間":"2023/10/23 上午 12:14:01"}},{"type":"Feature","geometry":{"type":"Point","coordinates":[121.738266,25.13248825]},"properties":{"圖徵編號":"203","agency":"基隆市私立美綠居家護理所居家式服務類長期照顧服務機構","data":"2021042713:23:53","county":"基隆市","town":"中山區","address":"基隆市中山區中山里中山一路121號","O_ABC":"B","Serve":"喘息服務","fax":"02-24251695","mail":"homecare-kl@fhmi.com.tw","name":"李珮菁","建立時間":"2023/10/23 上午 12:14:01"}},{"type":"Feature","geometry":{"type":"Point","coordinates":[121.7336578,25.10739708]},"properties":{"圖徵編號":"204","agency":"醫療財團法人臺灣區煤礦業基金會臺灣礦工醫院","data":"2023060615:10:28","county":"基隆市","town":"暖暖區","address":"基隆市暖暖區碇內里源遠路２９號","O_ABC":"B","Serve":"居家失能個案家庭醫師照護服務","fax":"02-24579101","mail":"steffihuang6928@gmail.com","name":"黎慶福","建立時間":"2023/10/23 上午 12:14:01"}},{"type":"Feature","geometry":{"type":"Point","coordinates":[121.7622375,25.12709808]},"properties":{"圖徵編號":"205","agency":"(新北)正泰居家物理治療所","data":"2023041715:58:30","county":"基隆市","town":"信義區","address":"基隆市信義區東明路67巷18-2號3樓","O_ABC":"B","Serve":"專業照護服務","fax":"0953-325-979","mail":"anita73711@yahoo.com.tw","name":"陳吟貞","建立時間":"2023/10/23 上午 12:14:01"}},{"type":"Feature","geometry":{"type":"Point","coordinates":[121.7782974,25.13584137]},"properties":{"圖徵編號":"206","agency":"政達物理治療所","data":"2023080217:19:14","county":"基隆市","town":"信義區","address":"基隆市信義區孝忠里教忠街88號","O_ABC":"B","Serve":"專業照護服務(CC01)","fax":"0961-166226","mail":"dadahome0918@yahoo.com.tw","name":"謝政達","建立時間":"2023/10/23 上午 12:14:01"}},{"type":"Feature","geometry":{"type":"Point","coordinates":[121.7442169,25.11799431]},"properties":{"圖徵編號":"207","agency":"基隆市仁愛區英仁里辦公處","data":"2021032314:33:04","county":"基隆市","town":"仁愛區","address":"基隆市仁愛區英仁里南榮路393巷20號","O_ABC":"C","Serve":"巷弄長照站","fax":"0912-996-996","mail":"leon0493@yahoo.com.tw","name":"楊凱婷","建立時間":"2023/10/23 上午 12:14:01"}},{"type":"Feature","geometry":{"type":"Point","coordinates":[121.7139664,25.12755585]},"properties":{"圖徵編號":"208","agency":"基隆市私立志心老人長期照顧中心(養護型)","data":"2022030210:51:20","county":"基隆市","town":"安樂區","address":"基隆市安樂區六合里樂利三街189、193號1樓","O_ABC":"B","Serve":"喘息服務","fax":"02-2432-3059","mail":"jrshinshin02@gmail.com","name":"吳靜宜","建立時間":"2023/10/23 上午 12:14:01"}},{"type":"Feature","geometry":{"type":"Point","coordinates":[121.7851944,25.13556671]},"properties":{"圖徵編號":"209","agency":"基隆市新豐愛鄉協會","data":"2022052316:01:18","county":"基隆市","town":"中正區","address":"基隆市中正區新豐里新豐街482號","O_ABC":"C","Serve":"巷弄長照站","fax":"02-24603336","mail":"c220153@yahoo.com.tw","name":"栗治明","建立時間":"2023/10/23 上午 12:14:01"}},{"type":"Feature","geometry":{"type":"Point","coordinates":[121.7085571,25.09770393]},"properties":{"圖徵編號":"210","agency":"基隆市社會教育協進會","data":"2020070210:49:54","county":"基隆市","town":"七堵區","address":"基隆市七堵區永安里永安里崇孝街81號","O_ABC":"C","Serve":"巷弄長照站","fax":"024-551-446","mail":"te6798@yahoo.com.tw","name":"周德隆","建立時間":"2023/10/23 上午 12:14:01"}},{"type":"Feature","geometry":{"type":"Point","coordinates":[121.771431,25.15369606]},"properties":{"圖徵編號":"211","agency":"基隆市原住民文化會館","data":"2020041714:09:49","county":"基隆市","town":"中正區","address":"基隆市中正區正濱路116巷75號","O_ABC":"C","Serve":"巷弄長照站","fax":"02-2462-2468","mail":"leowang11@apc.gov.tw","name":"袁彩恩","建立時間":"2023/10/23 上午 12:14:01"}}]}