{"type":"FeatureCollection","features":[{"type":"Feature","geometry":{"type":"Point","coordinates":[121.2797546,25.06368446]},"properties":{"圖徵編號":"1","agency":"桃園市都市原住民老人會","data":"2019090317:08:04","county":"桃園市","town":"蘆竹區","address":"桃園市蘆竹區內厝里東溪路28號","O_ABC":"C","Serve":"巷弄長照站","fax":"03-4802337","mail":"ccchungdaw@mohw.gov.tw","name":"待補","建立時間":"2023/10/23 上午 12:07:15"}},{"type":"Feature","geometry":{"type":"Point","coordinates":[121.331749,24.99531937]},"properties":{"圖徵編號":"2","agency":"社團法人中華民國士林靈糧堂社會福利協會附設桃園市私立龜山陸光社區長照機構","data":"2023042613:20:07","county":"桃園市","town":"龜山區","address":"桃園市龜山區陸光里029鄰自強西路240號1樓","O_ABC":"B","Serve":"小規模多機能服務","fax":"03-2132050","mail":"ksdaycare@slsc.org.tw","name":"劉群茂","建立時間":"2023/10/23 上午 12:07:15"}},{"type":"Feature","geometry":{"type":"Point","coordinates":[121.3120041,24.98231697]},"properties":{"圖徵編號":"3","agency":"沙爾德聖保祿修女會醫療財團法人附設聖保祿居家護理所","data":"2023022111:33:17","county":"桃園市","town":"桃園區","address":"桃園市桃園區建新街123號","O_ABC":"B","Serve":"專業照護服務","fax":"033613141","mail":"tecogi6@mail.sph.org.tw","name":"陳佳鈴","建立時間":"2023/10/23 上午 12:07:15"}},{"type":"Feature","geometry":{"type":"Point","coordinates":[121.2781143,25.05712509]},"properties":{"圖徵編號":"4","agency":"職物語居家職能治療所","data":"2023011815:08:40","county":"桃園市","town":"蘆竹區","address":"桃園市蘆竹區南崁路2段83號18樓之3(1826室)","O_ABC":"B","Serve":"專業照護服務","fax":"0913-820528","mail":"ops1080322@gmail.com","name":"李柏毅","建立時間":"2023/10/23 上午 12:07:15"}},{"type":"Feature","geometry":{"type":"Point","coordinates":[121.3025818,24.93620491]},"properties":{"圖徵編號":"5","agency":"桃園市八德區榮光服務協會","data":"2021012716:05:58","county":"桃園市","town":"八德區","address":"桃園市八德區大信里大興路1025號","O_ABC":"C","Serve":"巷弄長照站","fax":"03-3688808","mail":"a0985908411@gmail.com","name":"王國棟","建立時間":"2023/10/23 上午 12:07:15"}},{"type":"Feature","geometry":{"type":"Point","coordinates":[121.254158,24.92928886]},"properties":{"圖徵編號":"6","agency":"桃園市中壢區仁祥里辦公處","data":"2021012716:37:26","county":"桃園市","town":"中壢區","address":"桃園市中壢區龍平里華祥一街21號","O_ABC":"C","Serve":"巷弄長照站","fax":"03-4658837","mail":"ant3515@yahoo.com.tw","name":"陳秀菁","建立時間":"2023/10/23 上午 12:07:15"}},{"type":"Feature","geometry":{"type":"Point","coordinates":[121.2311249,24.9716301]},"properties":{"圖徵編號":"7","agency":"桃園市中壢區永福社區發展協會","data":"2021012716:39:31","county":"桃園市","town":"中壢區","address":"桃園市中壢區忠福里南園二路90號","O_ABC":"C","Serve":"巷弄長照站","fax":"03-4615485","mail":"h935258767@gmail.com","name":"黃寶貞","建立時間":"2023/10/23 上午 12:07:15"}},{"type":"Feature","geometry":{"type":"Point","coordinates":[121.2991028,24.930233]},"properties":{"圖徵編號":"8","agency":"桃園市八德區瑞祥里辦公處","data":"2021012810:54:31","county":"桃園市","town":"八德區","address":"桃園市八德區瑞祥里介壽路二段1233巷46-1號","O_ABC":"C","Serve":"巷弄長照站","fax":"03-4615485","mail":"a0927581675@yahoo.com.tw","name":"張是華","建立時間":"2023/10/23 上午 12:07:15"}},{"type":"Feature","geometry":{"type":"Point","coordinates":[121.2464066,24.93601608]},"properties":{"圖徵編號":"9","agency":"社團法人台灣樂活服務發展協會(豐收據點)","data":"2021012715:29:19","county":"桃園市","town":"中壢區","address":"桃園市中壢區龍慈里後寮一路320號1樓","O_ABC":"C","Serve":"巷弄長照站","fax":"0982-985298","mail":"top.church@ymail.com","name":"林淑萍","建立時間":"2023/10/23 上午 12:07:15"}},{"type":"Feature","geometry":{"type":"Point","coordinates":[121.1755753,24.90805626]},"properties":{"圖徵編號":"10","agency":"桃園市私立?駿居家長照機構","data":"2022062818:49:42","county":"桃園市","town":"楊梅區","address":"桃園市楊梅區瑞溪里中山北路二段265巷94號1樓","O_ABC":"B","Serve":"居家服務","fax":"03-4820769","mail":"Longjun2021@gmail.com","name":"邱?峰","建立時間":"2023/10/23 上午 12:07:15"}},{"type":"Feature","geometry":{"type":"Point","coordinates":[121.3077774,24.99611855]},"properties":{"圖徵編號":"11","agency":"桃園市私立家悅老人長期照顧中心(養護型)","data":"2023022115:29:49","county":"桃園市","town":"桃園區","address":"桃園市桃園區新生路165號5樓之2","O_ABC":"B","Serve":"喘息服務","fax":"03-3342139","mail":"c09985183@gmail.com","name":"楊閎升","建立時間":"2023/10/23 上午 12:07:15"}},{"type":"Feature","geometry":{"type":"Point","coordinates":[121.2223358,24.94704247]},"properties":{"圖徵編號":"12","agency":"社團法人台灣樂活服務發展協會(行道會據點)","data":"2021012715:33:37","county":"桃園市","town":"平鎮區","address":"桃園市平鎮區北勢里莒光路1號2樓","O_ABC":"C","Serve":"巷弄長照站","fax":"0982-985298","mail":"top.church@gmail.com","name":"馬瑞辰","建立時間":"2023/10/23 上午 12:07:15"}},{"type":"Feature","geometry":{"type":"Point","coordinates":[121.1572952,24.90833855]},"properties":{"圖徵編號":"13","agency":"社團法人中華雲鵬展弘協會","data":"2021012811:00:56","county":"桃園市","town":"楊梅區","address":"桃園市楊梅區中山里中山北路一段319號","O_ABC":"C","Serve":"巷弄長照站","fax":"03-4881300","mail":"yumnpp.ltcc@gmail.com","name":"李鈺璽","建立時間":"2023/10/23 上午 12:07:15"}},{"type":"Feature","geometry":{"type":"Point","coordinates":[121.1820221,24.91717148]},"properties":{"圖徵編號":"14","agency":"姜博文診所","data":"2021012714:58:50","county":"桃園市","town":"楊梅區","address":"桃園市楊梅區永寧里永美路335號3樓","O_ABC":"C","Serve":"巷弄長照站","fax":"03-4826241#322","mail":"4826241@gmail.com","name":"姜博文","建立時間":"2023/10/23 上午 12:07:15"}},{"type":"Feature","geometry":{"type":"Point","coordinates":[121.2762604,25.00576973]},"properties":{"圖徵編號":"15","agency":"桃園市蘆竹區新興社區發展協會","data":"2021020116:55:13","county":"桃園市","town":"蘆竹區","address":"桃園市蘆竹區新興里大竹路一巷336號","O_ABC":"C","Serve":"巷弄長照站","fax":"0913-000-338","mail":"j095230309158@gmail.com","name":"呂書言","建立時間":"2023/10/23 上午 12:07:15"}},{"type":"Feature","geometry":{"type":"Point","coordinates":[121.2232437,24.9568367]},"properties":{"圖徵編號":"16","agency":"財團法人天下為公社會福利慈善事業基金會中壢區","data":"2023012519:29:57","county":"桃園市","town":"中壢區","address":"桃園市中壢區中正路257號9F","O_ABC":"A","Serve":"個案管理服務","fax":"03-4260176","mail":"leoleo987321@gmail.com","name":"胡世賢","建立時間":"2023/10/23 上午 12:07:15"}},{"type":"Feature","geometry":{"type":"Point","coordinates":[121.2245255,24.9586277]},"properties":{"圖徵編號":"17","agency":"桃園市私立安安居家長照機構","data":"2020111613:58:17","county":"桃園市","town":"中壢區","address":"桃園市中壢區中央里延平路429號10樓之一","O_ABC":"B","Serve":"居家服務","fax":"03-4265391","mail":"ananhomecare@gmail.com","name":"蔣建宇","建立時間":"2023/10/23 上午 12:07:15"}},{"type":"Feature","geometry":{"type":"Point","coordinates":[121.3233032,24.99634743]},"properties":{"圖徵編號":"18","agency":"財團法人天主教德來會附設桃園市私立德來綜合長照機構","data":"2021020115:14:38","county":"桃園市","town":"桃園區","address":"桃園市桃園區三民里三民路一段2號2樓","O_ABC":"B","Serve":"日間照顧服務","fax":"03-3317226","mail":"joannahsieh9102005@yahoo.com","name":"蔡宜芬","建立時間":"2023/10/23 上午 12:07:15"}},{"type":"Feature","geometry":{"type":"Point","coordinates":[121.1735001,24.91124535]},"properties":{"圖徵編號":"19","agency":"桃園市楊梅區永平里辦公處","data":"2019123118:11:25","county":"桃園市","town":"楊梅區","address":"桃園市楊梅區永平里中山北路二段２６８巷１６號","O_ABC":"C","Serve":"巷弄長照站","fax":"0936-923067","mail":"80017360@mail.tycg.gov.tw","name":"陶其瑞","建立時間":"2023/10/23 上午 12:07:15"}},{"type":"Feature","geometry":{"type":"Point","coordinates":[121.3165054,24.92902756]},"properties":{"圖徵編號":"20","agency":"桃園市大溪區中興社區發展協會","data":"2021012716:12:53","county":"桃園市","town":"大溪區","address":"桃園市大溪區中新里16鄰大鶯路1450巷26號","O_ABC":"C","Serve":"巷弄長照站","fax":"0960-638268","mail":"maiaaa2003@yahoo.com.tw","name":"張傳","建立時間":"2023/10/23 上午 12:07:15"}},{"type":"Feature","geometry":{"type":"Point","coordinates":[121.2569275,24.97328377]},"properties":{"圖徵編號":"21","agency":"擁晴居家職能治療所","data":"2023020310:48:06","county":"桃園市","town":"中壢區","address":"桃園市中壢區興農路80號3樓B室","O_ABC":"B","Serve":"專業照護服務","fax":"0918-291491","mail":"yongqing4522618@gmail.com","name":"李幸樺","建立時間":"2023/10/23 上午 12:07:15"}},{"type":"Feature","geometry":{"type":"Point","coordinates":[121.3515778,24.81482887]},"properties":{"圖徵編號":"22","agency":"高揚威家醫科診所","data":"2023072013:07:47","county":"桃園市","town":"復興區","address":"桃園市復興區忠孝路32號","O_ABC":"B","Serve":"居家失能個案家庭醫師照護服務","fax":"03-3822839","mail":"alicewang19891030@gmail.com","name":"高揚威","建立時間":"2023/10/23 上午 12:07:15"}},{"type":"Feature","geometry":{"type":"Point","coordinates":[121.3515778,24.81482887]},"properties":{"圖徵編號":"23","agency":"高揚威家醫科診所","data":"2023020310:58:07","county":"桃園市","town":"復興區","address":"桃園市復興區忠孝路32號","O_ABC":"B","Serve":"專業照護服務","fax":"03-3822839","mail":"alicewang19891030@gmail.com","name":"高揚威","建立時間":"2023/10/23 上午 12:07:15"}},{"type":"Feature","geometry":{"type":"Point","coordinates":[121.2178192,24.8507576]},"properties":{"圖徵編號":"24","agency":"桃園市龍潭區上華里辦公處","data":"2021012717:02:59","county":"桃園市","town":"龍潭區","address":"桃園市龍潭區上華里大順路209號","O_ABC":"C","Serve":"巷弄長照站","fax":"03-4703681","mail":"lungrr@hotmail.com","name":"龍畇慈","建立時間":"2023/10/23 上午 12:07:15"}},{"type":"Feature","geometry":{"type":"Point","coordinates":[121.2168198,24.94801331]},"properties":{"圖徵編號":"25","agency":"桃園市平鎮區守望相助推廣協會","data":"2021012718:01:50","county":"桃園市","town":"平鎮區","address":"桃園市平鎮區新勢里新德街9號","O_ABC":"C","Serve":"巷弄長照站","fax":"03-49306070933080683","mail":"h0933080683@yahoo.com.tw","name":"范勝郎","建立時間":"2023/10/23 上午 12:07:15"}},{"type":"Feature","geometry":{"type":"Point","coordinates":[121.3083572,24.93862343]},"properties":{"圖徵編號":"26","agency":"國軍退除役官兵輔導委員會桃園榮譽國民之家附設悅來社區長照機構","data":"2023011816:07:43","county":"桃園市","town":"八德區","address":"桃園市八德區大信里興豐路1217號","O_ABC":"B","Serve":"喘息服務","fax":"03-3681140分機370、371林秦玲","mail":"vhtyu0129@mail5.vac.gov.tw","name":"陳平","建立時間":"2023/10/23 上午 12:07:15"}},{"type":"Feature","geometry":{"type":"Point","coordinates":[121.2206116,24.9292984]},"properties":{"圖徵編號":"27","agency":"財團法人桃園市私立國宏老人長期照顧中心(養護型)","data":"2023082208:28:09","county":"桃園市","town":"平鎮區","address":"桃園市平鎮區北貴里關爺東路19-5號","O_ABC":"B","Serve":"喘息服務","fax":"03-4582977","mail":"chang7716@gmail.com","name":"吳黃玉英","建立時間":"2023/10/23 上午 12:07:15"}},{"type":"Feature","geometry":{"type":"Point","coordinates":[121.3095551,24.97520638]},"properties":{"圖徵編號":"28","agency":"福安居家物理治療所","data":"2023020707:25:32","county":"桃園市","town":"八德區","address":"桃園市八德區樹仁三街601號1樓","O_ABC":"B","Serve":"專業照護服務","fax":"0965-667316","mail":"tommy830316@gmail.com","name":"朱曉英","建立時間":"2023/10/23 上午 12:07:15"}},{"type":"Feature","geometry":{"type":"Point","coordinates":[121.3035049,24.99825668]},"properties":{"圖徵編號":"29","agency":"世豪小客車租賃有限公司","data":"2022060914:14:56","county":"桃園市","town":"桃園區","address":"桃園市桃園區永安路223號3樓","O_ABC":"B","Serve":"交通接送服務","fax":"03-331-6367","mail":"peggyhuang6924@gmail.com","name":"舒茂松","建立時間":"2023/10/23 上午 12:07:15"}},{"type":"Feature","geometry":{"type":"Point","coordinates":[121.1081314,24.91166115]},"properties":{"圖徵編號":"30","agency":"姜博文診所楊梅區","data":"2023012519:44:09","county":"桃園市","town":"楊梅區","address":"桃園市楊梅區永美路335號2樓","O_ABC":"A","Serve":"個案管理服務","fax":"03-4826251","mail":"4826241@gmail.com","name":"姜博文","建立時間":"2023/10/23 上午 12:07:15"}},{"type":"Feature","geometry":{"type":"Point","coordinates":[121.1585999,25.0556736]},"properties":{"圖徵編號":"31","agency":"桃園市私立福安居家長照機構","data":"2023020116:24:07","county":"桃園市","town":"大園區","address":"桃園市大園區南港里大觀路1156巷6弄28號六樓之3","O_ABC":"B","Serve":"居家服務","fax":"033-868-700","mail":"tommy830316@gmail.com","name":"陳昱全","建立時間":"2023/10/23 上午 12:07:15"}},{"type":"Feature","geometry":{"type":"Point","coordinates":[121.2165298,24.86404419]},"properties":{"圖徵編號":"32","agency":"桃園市龍潭區衛生所附設居家護理所","data":"2023022014:38:26","county":"桃園市","town":"龍潭區","address":"桃園市龍潭區中正路210號2樓","O_ABC":"B","Serve":"專業照護服務","fax":"","mail":"10031386@mail.tycg.gov.tw","name":"李桂芬","建立時間":"2023/10/23 上午 12:07:15"}},{"type":"Feature","geometry":{"type":"Point","coordinates":[121.3509827,24.81507111]},"properties":{"圖徵編號":"33","agency":"桃園市復興區衛生所","data":"2023072013:21:30","county":"桃園市","town":"復興區","address":"桃園市復興區澤仁里中正路25號","O_ABC":"B","Serve":"居家失能個案家庭醫師照護服務","fax":"03-3822325","mail":"10029778@mail.tycg.gov.tw","name":"林德文","建立時間":"2023/10/23 上午 12:07:15"}},{"type":"Feature","geometry":{"type":"Point","coordinates":[121.1855545,24.94808769]},"properties":{"圖徵編號":"34","agency":"福樂居家物理治療所","data":"2023022016:45:15","county":"桃園市","town":"平鎮區","address":"桃園市平鎮區文化街236巷5號1樓","O_ABC":"B","Serve":"專業照護服務","fax":"0928-631872","mail":"fufupt@gmail.com","name":"羅苡綾","建立時間":"2023/10/23 上午 12:07:15"}},{"type":"Feature","geometry":{"type":"Point","coordinates":[121.1817169,24.90903091]},"properties":{"圖徵編號":"35","agency":"桃園市私立惜老社區長照機構","data":"2020120118:05:07","county":"桃園市","town":"楊梅區","address":"桃園市楊梅區瑞坪里瑞溪路二段156號2樓","O_ABC":"B","Serve":"日間照顧服務","fax":"03-4817779","mail":"ivy08206@gmail.com","name":"陳佳瑩","建立時間":"2023/10/23 上午 12:07:15"}},{"type":"Feature","geometry":{"type":"Point","coordinates":[121.1573563,24.90837669]},"properties":{"圖徵編號":"36","agency":"桃園市私立雲隼居家長照機構","data":"2021010714:30:42","county":"桃園市","town":"楊梅區","address":"桃園市楊梅區中山里中山北路一段319號","O_ABC":"B","Serve":"營養餐飲服務","fax":"034-881-300","mail":"yunpp.ltcc@gmail.com","name":"李鈺堂","建立時間":"2023/10/23 上午 12:07:15"}},{"type":"Feature","geometry":{"type":"Point","coordinates":[121.3095551,24.97520638]},"properties":{"圖徵編號":"37","agency":"桃園市私立旭登居家式服務類長期照顧服務機構","data":"2020120913:10:05","county":"桃園市","town":"八德區","address":"桃園市八德區大強里樹仁三街601號3樓","O_ABC":"B","Serve":"到宅沐浴車服務","fax":"03-2181190","mail":"rr0329@yahoo.com.tw","name":"李昆璋","建立時間":"2023/10/23 上午 12:07:15"}},{"type":"Feature","geometry":{"type":"Point","coordinates":[121.3095551,24.97520638]},"properties":{"圖徵編號":"38","agency":"桃園市私立旭登居家式服務類長期照顧服務機構","data":"2022030211:51:13","county":"桃園市","town":"八德區","address":"桃園市八德區大強里樹仁三街601號3樓","O_ABC":"B","Serve":"喘息服務","fax":"03-2181190","mail":"rr0329@yahoo.com.tw","name":"李昆璋","建立時間":"2023/10/23 上午 12:07:15"}},{"type":"Feature","geometry":{"type":"Point","coordinates":[121.2073669,24.94401169]},"properties":{"圖徵編號":"39","agency":"桃園市私立宜適康居家長照機構","data":"2023020116:06:41","county":"桃園市","town":"平鎮區","address":"桃園市平鎮區平興里桃園市平鎮區平興里延平路二段350之3號1樓","O_ABC":"B","Serve":"居家服務","fax":"032-757-872","mail":"in851@usc.edu","name":"林峻?","建立時間":"2023/10/23 上午 12:07:15"}},{"type":"Feature","geometry":{"type":"Point","coordinates":[121.3068466,24.99479294]},"properties":{"圖徵編號":"40","agency":"財團法人桃園市私立怡德老人長期照顧中心(養護型)附設桃園市私立怡德綜合長照機構","data":"2023022309:19:41","county":"桃園市","town":"桃園區","address":"桃園市桃園區西門里005鄰和興街17號","O_ABC":"B","Serve":"喘息服務","fax":"03-3373488","mail":"wg27520@yahoo.com.tw","name":"林哲弘","建立時間":"2023/10/23 上午 12:07:15"}},{"type":"Feature","geometry":{"type":"Point","coordinates":[121.2976608,25.00242805]},"properties":{"圖徵編號":"41","agency":"博善健康股份有限公司附設桃園市私立博樂居家長照機構","data":"2023022309:41:39","county":"桃園市","town":"桃園區","address":"桃園市桃園區永安路445號","O_ABC":"B","Serve":"喘息服務","fax":"03-216-0026","mail":"boshan052021@gmail.com","name":"陳諺弘","建立時間":"2023/10/23 上午 12:07:15"}},{"type":"Feature","geometry":{"type":"Point","coordinates":[121.2185898,24.86953926]},"properties":{"圖徵編號":"42","agency":"金色年代長照社團法人附設桃園市私立天慈綜合長照機構","data":"2023020110:30:33","county":"桃園市","town":"龍潭區","address":"桃園市龍潭區中山里010鄰北龍路311巷35弄20號1樓","O_ABC":"B","Serve":"日間照顧服務","fax":"03-4802022","mail":"daycare01@tcmg.com.tw","name":"徐向謙","建立時間":"2023/10/23 上午 12:07:15"}},{"type":"Feature","geometry":{"type":"Point","coordinates":[121.288826,24.88062668]},"properties":{"圖徵編號":"43","agency":"恩典文化健康站","data":"2020041719:02:34","county":"桃園市","town":"大溪區","address":"桃園市大溪區復興路2號7樓","O_ABC":"C","Serve":"巷弄長照站","fax":"0980-685733","mail":"10019341@mail.tycg.gov.tw","name":"潘玉雯","建立時間":"2023/10/23 上午 12:07:15"}},{"type":"Feature","geometry":{"type":"Point","coordinates":[121.2084885,25.05993462]},"properties":{"圖徵編號":"44","agency":"桃園市大園區埔心社區發展協會","data":"2021012716:11:43","county":"桃園市","town":"大園區","address":"桃園市大園區埔心里中正東路1段671巷23號","O_ABC":"C","Serve":"巷弄長照站","fax":"0933-104386","mail":"wang3815295@gmail.com","name":"王麗梅","建立時間":"2023/10/23 上午 12:07:15"}},{"type":"Feature","geometry":{"type":"Point","coordinates":[121.1119003,24.92951202]},"properties":{"圖徵編號":"45","agency":"桃園市楊梅區瑞原社區發展協會","data":"2020122811:04:22","county":"桃園市","town":"楊梅區","address":"桃園市楊梅區瑞原里民豐路506號","O_ABC":"B","Serve":"喘息服務","fax":"03-4728951","mail":"muhshan@ms79.hinet.net","name":"葉國桂","建立時間":"2023/10/23 上午 12:07:15"}},{"type":"Feature","geometry":{"type":"Point","coordinates":[121.2161484,24.95632172]},"properties":{"圖徵編號":"46","agency":"財團法人桃園市私立怡德老人長期照顧中心(養護型)附設桃園市私立中壢新明社區長照機構","data":"2023011816:50:34","county":"桃園市","town":"中壢區","address":"桃園市中壢區舊明里008鄰明德路60號3樓","O_ABC":"B","Serve":"喘息服務","fax":"03-3373488","mail":"qwert741753@gmail.com","name":"林哲弘","建立時間":"2023/10/23 上午 12:07:15"}},{"type":"Feature","geometry":{"type":"Point","coordinates":[121.2861404,25.08685303]},"properties":{"圖徵編號":"47","agency":"桃園市蘆竹區山腳社區發展協會","data":"2021012810:13:31","county":"桃園市","town":"蘆竹區","address":"桃園市蘆竹區山腳里南山路三段357巷10號","O_ABC":"C","Serve":"巷弄長照站","fax":"0966-841793","mail":"lichegn1123@yahoo.com.tw","name":"戴鉑釗","建立時間":"2023/10/23 上午 12:07:15"}},{"type":"Feature","geometry":{"type":"Point","coordinates":[121.3015137,25.05085182]},"properties":{"圖徵編號":"48","agency":"歡喜學堂推廣協會附設桃園市私立歡喜到宅居家長照機構","data":"2022011409:33:51","county":"桃園市","town":"蘆竹區","address":"桃園市蘆竹區羊稠里中山路12號2樓","O_ABC":"B","Serve":"居家服務","fax":"03-3222606","mail":"happycare3222606@gmail.com","name":"吳忠泰","建立時間":"2023/10/23 上午 12:07:15"}},{"type":"Feature","geometry":{"type":"Point","coordinates":[121.2872238,25.07135582]},"properties":{"圖徵編號":"49","agency":"桃園市蘆竹區內厝社區發展協會","data":"2021012810:14:41","county":"桃園市","town":"蘆竹區","address":"桃園市蘆竹區內厝里南山路2段394巷67號","O_ABC":"C","Serve":"巷弄長照站","fax":"0936-833886","mail":"tao34010@gmail.com","name":"游登財","建立時間":"2023/10/23 上午 12:07:15"}},{"type":"Feature","geometry":{"type":"Point","coordinates":[121.2576675,24.96469688]},"properties":{"圖徵編號":"50","agency":"長榮健康長照社團法人附設桃園市私立榮安居家長照機構","data":"2023020116:02:24","county":"桃園市","town":"中壢區","address":"桃園市中壢區自治里環中東路106巷3弄35號","O_ABC":"B","Serve":"居家服務","fax":"03-4515286","mail":"ronganltci@gmail.com","name":"謝麗玲","建立時間":"2023/10/23 上午 12:07:15"}},{"type":"Feature","geometry":{"type":"Point","coordinates":[121.2127991,25.02934647]},"properties":{"圖徵編號":"51","agency":"桃園市大園區橫峰社區發展協會","data":"2021012717:57:22","county":"桃園市","town":"大園區","address":"桃園市大園區橫峰里中山南路二段25鄰435號","O_ABC":"C","Serve":"巷弄長照站","fax":"0922-713-143","mail":"h810285639@gmail.com","name":"羅志全","建立時間":"2023/10/23 上午 12:07:15"}},{"type":"Feature","geometry":{"type":"Point","coordinates":[121.2442703,24.84897041]},"properties":{"圖徵編號":"52","agency":"桃園市龍潭區佳安社區發展協會","data":"2021012717:15:03","county":"桃園市","town":"龍潭區","address":"桃園市龍潭區佳安里中正路佳安段403號","O_ABC":"C","Serve":"巷弄長照站","fax":"03-4713017","mail":"fash403@yahoo.com.tw","name":"江李桂春","建立時間":"2023/10/23 上午 12:07:15"}},{"type":"Feature","geometry":{"type":"Point","coordinates":[121.3046036,24.93609238]},"properties":{"圖徵編號":"53","agency":"財團法人中華民國佛教慈濟慈善事業基金會八德區","data":"2023012519:40:28","county":"桃園市","town":"八德區","address":"桃園市八德區興豐路1139號","O_ABC":"A","Serve":"個案管理服務","fax":"0982-041-736","mail":"ltc000181@tzuchi.org.tw","name":"釋證嚴","建立時間":"2023/10/23 上午 12:07:15"}},{"type":"Feature","geometry":{"type":"Point","coordinates":[121.2206116,24.9292984]},"properties":{"圖徵編號":"54","agency":"財團法人桃園市私立國宏老人長期照顧中心(養護型)","data":"2020122811:06:34","county":"桃園市","town":"平鎮區","address":"桃園市平鎮區北貴里關爺東路19-5號","O_ABC":"B","Serve":"喘息服務","fax":"03-4582977","mail":"chang7716@gmail.com","name":"吳黃玉英","建立時間":"2023/10/23 上午 12:07:15"}},{"type":"Feature","geometry":{"type":"Point","coordinates":[121.3139191,24.99581528]},"properties":{"圖徵編號":"55","agency":"桃園市私立慈照居家式服務類長期照顧服務機構","data":"2023020117:01:02","county":"桃園市","town":"桃園區","address":"桃園市桃園區東門里中山東路21號4樓B2室","O_ABC":"B","Serve":"居家服務","fax":"03-3391181","mail":"3391181@gmail.com","name":"曹昌敏","建立時間":"2023/10/23 上午 12:07:15"}},{"type":"Feature","geometry":{"type":"Point","coordinates":[121.2271347,24.94496155]},"properties":{"圖徵編號":"56","agency":"社團法人台灣樂活服務發展協會(執信據點)","data":"2021012715:29:00","county":"桃園市","town":"中壢區","address":"桃園市中壢區林森里執信一街167號","O_ABC":"C","Serve":"巷弄長照站","fax":"0982-985298","mail":"jinyuhe0327@gmail.com","name":"林淑萍","建立時間":"2023/10/23 上午 12:07:15"}},{"type":"Feature","geometry":{"type":"Point","coordinates":[121.3678589,25.05110931]},"properties":{"圖徵編號":"57","agency":"大慶護理之家","data":"2022042508:34:47","county":"桃園市","town":"龜山區","address":"桃園市龜山區大華里文化七路182巷9號","O_ABC":"B","Serve":"喘息服務","fax":"03-3960035","mail":"home9050@hotmail.com","name":"許純毓","建立時間":"2023/10/23 上午 12:07:15"}},{"type":"Feature","geometry":{"type":"Point","coordinates":[121.144455,24.91285133]},"properties":{"圖徵編號":"58","agency":"社團法人中華民國紅十字會桃園市分會附設桃園市私立福喜緣社區長照機構","data":"2023011816:00:25","county":"桃園市","town":"楊梅區","address":"桃園市楊梅區楊梅里大模街10號2樓","O_ABC":"B","Serve":"小規模多機能服務","fax":"03-4855785","mail":"yuannjen@tyred.tw","name":"劉志清","建立時間":"2023/10/23 上午 12:07:15"}},{"type":"Feature","geometry":{"type":"Point","coordinates":[121.3085403,24.99056244]},"properties":{"圖徵編號":"59","agency":"好厝邊長照有限公司附設桃園市私立好厝邊居家長照機構","data":"2023011814:23:58","county":"桃園市","town":"桃園區","address":"桃園市桃園區文明里南華街60號8樓之1","O_ABC":"B","Serve":"喘息服務","fax":"0908-231-736","mail":"jamiekuan075@gmail.com","name":"薛文翔","建立時間":"2023/10/23 上午 12:07:15"}},{"type":"Feature","geometry":{"type":"Point","coordinates":[121.2482529,24.97293091]},"properties":{"圖徵編號":"60","agency":"桃園市中壢區復華社區發展協會","data":"2021012718:01:19","county":"桃園市","town":"中壢區","address":"桃園市中壢區復華里復華街188號2樓","O_ABC":"C","Serve":"巷弄長照站","fax":"0933-961373","mail":"hj48514@yahoo.com.tw","name":"曾榮煥","建立時間":"2023/10/23 上午 12:07:15"}},{"type":"Feature","geometry":{"type":"Point","coordinates":[121.2011719,24.83269691]},"properties":{"圖徵編號":"61","agency":"桃園市私立厚德老人長期照顧中心(養護型)","data":"2023011815:18:35","county":"桃園市","town":"龍潭區","address":"桃園市龍潭區高原里高原路239號(1-2F)","O_ABC":"B","Serve":"喘息服務","fax":"03-4718866","mail":"dfhoude@yahoo.com.tw","name":"謝孟君","建立時間":"2023/10/23 上午 12:07:15"}},{"type":"Feature","geometry":{"type":"Point","coordinates":[121.1658096,24.9804554]},"properties":{"圖徵編號":"62","agency":"中壢長榮醫院中壢區","data":"2023012519:44:47","county":"桃園市","town":"中壢區","address":"桃園市中壢區環中東路150號","O_ABC":"A","Serve":"個案管理服務","fax":"03-4631230","mail":"sw@mail.egh.com.tw","name":"謝麗玲","建立時間":"2023/10/23 上午 12:07:15"}},{"type":"Feature","geometry":{"type":"Point","coordinates":[121.331749,24.99531937]},"properties":{"圖徵編號":"63","agency":"社團法人中華民國士林靈糧堂社會福利協會附設桃園市私立龜山陸光社區長照機構","data":"2023042613:38:08","county":"桃園市","town":"龜山區","address":"桃園市龜山區陸光里029鄰自強西路240號1樓","O_ABC":"B","Serve":"喘息服務","fax":"03-2132050","mail":"ksdaycare@slsc.org.tw","name":"劉群茂","建立時間":"2023/10/23 上午 12:07:15"}},{"type":"Feature","geometry":{"type":"Point","coordinates":[121.331749,24.99531937]},"properties":{"圖徵編號":"64","agency":"社團法人中華民國士林靈糧堂社會福利協會附設桃園市私立龜山陸光社區長照機構","data":"2023042616:05:57","county":"桃園市","town":"龜山區","address":"桃園市龜山區陸光里029鄰自強西路240號1樓","O_ABC":"B","Serve":"交通接送服務","fax":"03-2132050","mail":"ksdaycare@slsc.org.tw","name":"劉群茂","建立時間":"2023/10/23 上午 12:07:15"}},{"type":"Feature","geometry":{"type":"Point","coordinates":[121.2801056,24.93388176]},"properties":{"圖徵編號":"65","agency":"桃園市私立家慈居家長照機構(八德元福)","data":"2023020116:12:07","county":"桃園市","town":"八德區","address":"桃園市八德區福興里長興二路56號","O_ABC":"B","Serve":"居家服務","fax":"03-3909835","mail":"fu3651901@gmail.com","name":"張建忠","建立時間":"2023/10/23 上午 12:07:15"}},{"type":"Feature","geometry":{"type":"Point","coordinates":[121.1997604,24.84583664]},"properties":{"圖徵編號":"66","agency":"桃園市龍潭區中山社區發展協會","data":"2021012717:04:27","county":"桃園市","town":"龍潭區","address":"桃園市龍潭區中山里華南路3號","O_ABC":"C","Serve":"巷弄長照站","fax":"0936-158225","mail":"s4792242@hotmail.com","name":"黃玉春","建立時間":"2023/10/23 上午 12:07:15"}},{"type":"Feature","geometry":{"type":"Point","coordinates":[121.1817169,24.90903091]},"properties":{"圖徵編號":"67","agency":"桃園市私立惜老社區長照機構","data":"2023011816:00:25","county":"桃園市","town":"楊梅區","address":"桃園市楊梅區瑞坪里瑞溪路二段156號2樓","O_ABC":"B","Serve":"喘息服務","fax":"03-4817779","mail":"ivy08206@gmail.com","name":"陳佳瑩","建立時間":"2023/10/23 上午 12:07:15"}},{"type":"Feature","geometry":{"type":"Point","coordinates":[121.1870956,24.99055862]},"properties":{"圖徵編號":"68","agency":"懷寧護理之家","data":"2023011815:33:51","county":"桃園市","town":"中壢區","address":"桃園市中壢區月眉里崇德三路250號1至4樓、252號1至4樓","O_ABC":"B","Serve":"喘息服務","fax":"03-4080143","mail":"v0989326287@gmail.com","name":"楊少如","建立時間":"2023/10/23 上午 12:07:15"}},{"type":"Feature","geometry":{"type":"Point","coordinates":[121.305542,24.96800804]},"properties":{"圖徵編號":"69","agency":"致樂居家物理治療所","data":"2023080217:19:14","county":"桃園市","town":"桃園區","address":"桃園市桃園區仁愛路87巷1號4F之3","O_ABC":"B","Serve":"專業照護服務(CC01)","fax":"03-3700102","mail":"chun6354@gmail.com","name":"林怡君","建立時間":"2023/10/23 上午 12:07:15"}},{"type":"Feature","geometry":{"type":"Point","coordinates":[121.1973648,24.92713547]},"properties":{"圖徵編號":"70","agency":"桃園市平鎮區平鎮社區發展協會","data":"2021012718:02:24","county":"桃園市","town":"平鎮區","address":"桃園市平鎮區平鎮里南平路2段516巷(進去800公尺)","O_ABC":"C","Serve":"巷弄長照站","fax":"0935-756-036","mail":"chuang4043@gmail.com","name":"邱創寶","建立時間":"2023/10/23 上午 12:07:15"}},{"type":"Feature","geometry":{"type":"Point","coordinates":[121.2791748,24.9895153]},"properties":{"圖徵編號":"71","agency":"桃園市私立明心社區長照機構","data":"2023011817:05:17","county":"桃園市","town":"桃園區","address":"桃園市桃園區龍鳳里國豐三街77-1號","O_ABC":"B","Serve":"日間照顧服務","fax":"03-3600773","mail":"rknowyou2020@gmail.com","name":"薛明介","建立時間":"2023/10/23 上午 12:07:15"}},{"type":"Feature","geometry":{"type":"Point","coordinates":[121.2781143,25.05712509]},"properties":{"圖徵編號":"72","agency":"職物語居家職能治療所","data":"2023080217:19:14","county":"桃園市","town":"蘆竹區","address":"桃園市蘆竹區南崁路2段83號18樓之3(1826室)","O_ABC":"B","Serve":"專業照護服務(CC01)","fax":"0913-820528","mail":"ops1080322@gmail.com","name":"李柏毅","建立時間":"2023/10/23 上午 12:07:15"}},{"type":"Feature","geometry":{"type":"Point","coordinates":[121.2791748,24.9895153]},"properties":{"圖徵編號":"73","agency":"桃園市私立明心社區長照機構","data":"2023011817:05:17","county":"桃園市","town":"桃園區","address":"桃園市桃園區龍鳳里國豐三街77-1號","O_ABC":"B","Serve":"喘息服務","fax":"03-3600773","mail":"rknowyou2020@gmail.com","name":"薛明介","建立時間":"2023/10/23 上午 12:07:15"}},{"type":"Feature","geometry":{"type":"Point","coordinates":[121.4857864,25.01468468]},"properties":{"圖徵編號":"74","agency":"桃園市私立龍德社區長照機構","data":"2023011817:24:39","county":"桃園市","town":"新屋區","address":"桃園市新屋區新屋里中華路214號","O_ABC":"B","Serve":"喘息服務","fax":"03-4970361","mail":"2022longde@gmail.com","name":"彭振亮","建立時間":"2023/10/23 上午 12:07:15"}},{"type":"Feature","geometry":{"type":"Point","coordinates":[121.2541351,24.91793633]},"properties":{"圖徵編號":"75","agency":"平鎮佳醫護理之家","data":"2023022016:11:34","county":"桃園市","town":"平鎮區","address":"桃園市平鎮區新安里東光路23巷18號","O_ABC":"B","Serve":"喘息服務","fax":"03-4607277","mail":"shosho131420@yahoo.com.tw","name":"黃月秀","建立時間":"2023/10/23 上午 12:07:15"}},{"type":"Feature","geometry":{"type":"Point","coordinates":[121.155426,24.91695023]},"properties":{"圖徵編號":"76","agency":"怡仁綜合醫院","data":"2023072014:50:19","county":"桃園市","town":"楊梅區","address":"桃園市楊梅區楊新北路三二一巷三０號","O_ABC":"B","Serve":"居家失能個案家庭醫師照護服務","fax":"034855566","mail":"n9343@yeezen.com","name":"林承志","建立時間":"2023/10/23 上午 12:07:15"}},{"type":"Feature","geometry":{"type":"Point","coordinates":[121.3113861,24.96548271]},"properties":{"圖徵編號":"77","agency":"桃園市德強愛心關懷協會","data":"2021012717:56:02","county":"桃園市","town":"八德區","address":"桃園市八德區大強里東勇街400巷57號","O_ABC":"C","Serve":"巷弄長照站","fax":"033-626-557","mail":"chunhuang888@yahoo.com.tw","name":"陳春煌","建立時間":"2023/10/23 上午 12:07:15"}},{"type":"Feature","geometry":{"type":"Point","coordinates":[121.2888947,25.00550652]},"properties":{"圖徵編號":"78","agency":"全齡居家職能治療所","data":"2023011016:36:14","county":"桃園市","town":"桃園區","address":"桃園市桃園區愛三街186號5樓","O_ABC":"B","Serve":"專業照護服務","fax":"0989-340673","mail":"allagetraining@gmail.com","name":"阮慧琪","建立時間":"2023/10/23 上午 12:07:15"}},{"type":"Feature","geometry":{"type":"Point","coordinates":[121.211525,24.88090134]},"properties":{"圖徵編號":"79","agency":"桃園市龍潭區烏林社區發展協會","data":"2021012716:58:05","county":"桃園市","town":"龍潭區","address":"桃園市龍潭區烏林里中豐路401號","O_ABC":"C","Serve":"巷弄長照站","fax":"0953-001255","mail":"maan6882@yahoo.com.tw","name":"曾盛佳","建立時間":"2023/10/23 上午 12:07:15"}},{"type":"Feature","geometry":{"type":"Point","coordinates":[121.1485214,24.90137863]},"properties":{"圖徵編號":"80","agency":"惠好居家職能治療所","data":"2023080217:19:14","county":"桃園市","town":"楊梅區","address":"桃園市楊梅區校前路254巷55號10樓","O_ABC":"B","Serve":"專業照護服務(CC01)","fax":"0936-999246","mail":"tenglendon@gmail.com","name":"鄧金春","建立時間":"2023/10/23 上午 12:07:15"}},{"type":"Feature","geometry":{"type":"Point","coordinates":[121.3678589,25.05110931]},"properties":{"圖徵編號":"81","agency":"大慶護理之家","data":"2023011013:34:14","county":"桃園市","town":"龜山區","address":"桃園市龜山區大華里文化七路182巷9號","O_ABC":"B","Serve":"喘息服務","fax":"03-3960035","mail":"home9050@hotmail.com","name":"許純毓","建立時間":"2023/10/23 上午 12:07:15"}},{"type":"Feature","geometry":{"type":"Point","coordinates":[121.174118,25.04447556]},"properties":{"圖徵編號":"82","agency":"桃園市大園區和平社區發展協會","data":"2021012717:08:30","county":"桃園市","town":"大園區","address":"桃園市大園區大園里平南路77巷9號","O_ABC":"C","Serve":"巷弄長照站","fax":"03-3863795","mail":"tallmeifun@yahoo.com","name":"梁垠錄","建立時間":"2023/10/23 上午 12:07:15"}},{"type":"Feature","geometry":{"type":"Point","coordinates":[121.356369,25.00121307]},"properties":{"圖徵編號":"83","agency":"桃園市私立慈慧老人長期照顧中心（養護型）","data":"2023090511:29:47","county":"桃園市","town":"龜山區","address":"桃園市龜山區萬壽路二段345號","O_ABC":"B","Serve":"喘息服務","fax":"03-3194922","mail":"siam5039@gmail.com","name":"鍾鳳連","建立時間":"2023/10/23 上午 12:07:15"}},{"type":"Feature","geometry":{"type":"Point","coordinates":[121.2128601,24.85583687]},"properties":{"圖徵編號":"84","agency":"桃園市龍潭區上林社區發展協會","data":"2021012810:04:06","county":"桃園市","town":"龍潭區","address":"桃園市龍潭區上林里金龍路112巷51號","O_ABC":"C","Serve":"巷弄長照站","fax":"0933-967589","mail":"hfan2110@ms17.hinet.net","name":"黃承藩","建立時間":"2023/10/23 上午 12:07:15"}},{"type":"Feature","geometry":{"type":"Point","coordinates":[121.3515396,24.81566238]},"properties":{"圖徵編號":"85","agency":"中華民國崇善社會福利協會","data":"2019090309:30:37","county":"桃園市","town":"復興區","address":"桃園市復興區澤仁里忠孝路84號","O_ABC":"C","Serve":"巷弄長照站","fax":"0963-786360","mail":"ccchungdaw@mohw.gov.tw","name":"待補","建立時間":"2023/10/23 上午 12:07:15"}},{"type":"Feature","geometry":{"type":"Point","coordinates":[121.2975235,24.96430016]},"properties":{"圖徵編號":"86","agency":"有限責任桃園市宜興照顧服務勞動合作社附設桃園市私立宜興居家長照機構","data":"2023052910:49:48","county":"桃園市","town":"八德區","address":"桃園市八德區大智里25鄰大智路99號4樓","O_ABC":"B","Serve":"喘息服務","fax":"03-3631977","mail":"yixingcare@gmail.com","name":"吳建宏","建立時間":"2023/10/23 上午 12:07:15"}},{"type":"Feature","geometry":{"type":"Point","coordinates":[121.3068466,24.99479294]},"properties":{"圖徵編號":"87","agency":"財團法人桃園市私立怡德老人長期照顧中心(養護型)附設桃園市私立怡德綜合長照機構","data":"2023011816:39:26","county":"桃園市","town":"桃園區","address":"桃園市桃園區西門里005鄰和興街17號","O_ABC":"B","Serve":"居家服務","fax":"03-3373488","mail":"wg27520@yahoo.com.tw","name":"林哲弘","建立時間":"2023/10/23 上午 12:07:15"}},{"type":"Feature","geometry":{"type":"Point","coordinates":[121.2963181,25.01132965]},"properties":{"圖徵編號":"88","agency":"護寧居家護理所","data":"2023022111:28:27","county":"桃園市","town":"桃園區","address":"桃園市桃園區中埔二街80號5樓","O_ABC":"B","Serve":"專業照護服務","fax":"03-3413355","mail":"healthnurse_hn@yahoo.com.tw","name":"朱麗雲","建立時間":"2023/10/23 上午 12:07:15"}},{"type":"Feature","geometry":{"type":"Point","coordinates":[121.1860657,24.99725914]},"properties":{"圖徵編號":"89","agency":"晴天居家護理所","data":"2023040610:23:54","county":"桃園市","town":"平鎮區","address":"桃園市平鎮區中豐路110號2樓","O_ABC":"B","Serve":"喘息服務","fax":"0935-800-983","mail":"sd.homecare429@gmail.com","name":"王曉倩","建立時間":"2023/10/23 上午 12:07:15"}},{"type":"Feature","geometry":{"type":"Point","coordinates":[121.1572952,24.90833855]},"properties":{"圖徵編號":"90","agency":"社團法人中華雲鵬展弘協會","data":"2020123122:12:15","county":"桃園市","town":"楊梅區","address":"桃園市楊梅區中山里中山北路一段319號","O_ABC":"B","Serve":"營養餐飲服務","fax":"03-4881300","mail":"yumnpp.ltcc@gmail.com","name":"李鈺璽","建立時間":"2023/10/23 上午 12:07:15"}},{"type":"Feature","geometry":{"type":"Point","coordinates":[121.2042618,24.91104126]},"properties":{"圖徵編號":"91","agency":"聯恩診所","data":"2023031517:36:16","county":"桃園市","town":"平鎮區","address":"桃園市平鎮區平南里開封街88號","O_ABC":"C","Serve":"巷弄長照站","fax":"034-395-633","mail":"minalu496@gmail.com","name":"洪國泰","建立時間":"2023/10/23 上午 12:07:15"}},{"type":"Feature","geometry":{"type":"Point","coordinates":[121.212616,24.88698959]},"properties":{"圖徵編號":"92","agency":"拾全拾美樂齡事業有限公司附設桃園市私立潛龍綜合長照機構","data":"2023022014:32:50","county":"桃園市","town":"龍潭區","address":"桃園市龍潭區烏樹林6鄰中豐路640號之2","O_ABC":"B","Serve":"專業照護服務","fax":"03-4990906","mail":"Perfect9068@gmail.com","name":"王運昌","建立時間":"2023/10/23 上午 12:07:15"}},{"type":"Feature","geometry":{"type":"Point","coordinates":[121.2574081,24.96802521]},"properties":{"圖徵編號":"93","agency":"活力診所","data":"2023072013:17:21","county":"桃園市","town":"中壢區","address":"桃園市中壢區山東里莊敬路160號2樓","O_ABC":"B","Serve":"居家失能個案家庭醫師照護服務","fax":"03-4826241#323","mail":"4826241@gmail.com","name":"張聖暉","建立時間":"2023/10/23 上午 12:07:15"}},{"type":"Feature","geometry":{"type":"Point","coordinates":[120.6134033,24.11668968]},"properties":{"圖徵編號":"94","agency":"桃園市八德區竹霄社區發展協會","data":"2021020116:00:12","county":"桃園市","town":"八德區","address":"桃園市八德區霄裡里廟前1-1號","O_ABC":"C","Serve":"巷弄長照站","fax":"0932-933083","mail":"monica@abtek.com.tw","name":"鄧旭東","建立時間":"2023/10/23 上午 12:07:15"}},{"type":"Feature","geometry":{"type":"Point","coordinates":[121.365036,25.05740547]},"properties":{"圖徵編號":"95","agency":"家馨居家護理所","data":"2023022014:29:58","county":"桃園市","town":"龜山區","address":"桃園市龜山區復興一路230號5樓之3","O_ABC":"B","Serve":"專業照護服務","fax":"03-2114920","mail":"ru8230@hotmail.com","name":"楊淑宜","建立時間":"2023/10/23 上午 12:07:15"}},{"type":"Feature","geometry":{"type":"Point","coordinates":[121.2955246,25.01255798]},"properties":{"圖徵編號":"96","agency":"桃園市桃園區寶慶里辦公處","data":"2021012810:42:48","county":"桃園市","town":"桃園區","address":"桃園市桃園區寶慶里同德五街281-295號(交誼廳)汝志超","O_ABC":"C","Serve":"巷弄長照站","fax":"0933-951708","mail":"cichuan@ms35.hinet.net","name":"汝志超","建立時間":"2023/10/23 上午 12:07:15"}},{"type":"Feature","geometry":{"type":"Point","coordinates":[121.2069397,24.91445732]},"properties":{"圖徵編號":"97","agency":"桃園市私立幸福家居家長照機構","data":"2023011814:44:16","county":"桃園市","town":"平鎮區","address":"桃園市平鎮區金星里大連街43號2樓","O_ABC":"B","Serve":"喘息服務","fax":"0931-067-560","mail":"blessedhome0816@gmail.com","name":"葉日隆","建立時間":"2023/10/23 上午 12:07:15"}},{"type":"Feature","geometry":{"type":"Point","coordinates":[121.3085403,24.99056244]},"properties":{"圖徵編號":"98","agency":"好厝邊長照有限公司附設桃園市私立好厝邊居家長照機構","data":"2023020116:16:10","county":"桃園市","town":"桃園區","address":"桃園市桃園區文明里南華街60號8樓之1","O_ABC":"B","Serve":"居家服務","fax":"0908-231-736","mail":"jamiekuan075@gmail.com","name":"薛文翔","建立時間":"2023/10/23 上午 12:07:15"}},{"type":"Feature","geometry":{"type":"Point","coordinates":[121.1649933,24.96212578]},"properties":{"圖徵編號":"99","agency":"桃園市私立關懷居家長照機構","data":"2023020116:10:43","county":"桃園市","town":"中壢區","address":"桃園市中壢區過嶺里松信路109號1樓","O_ABC":"B","Serve":"居家服務","fax":"03-4905753","mail":"care4905753@gmail.com","name":"許良怡","建立時間":"2023/10/23 上午 12:07:15"}},{"type":"Feature","geometry":{"type":"Point","coordinates":[121.2578812,24.95181274]},"properties":{"圖徵編號":"100","agency":"桃園市中壢區華愛里辦公處","data":"2021012810:39:23","county":"桃園市","town":"中壢區","address":"桃園市中壢區華愛里華勛街37巷11號1樓","O_ABC":"C","Serve":"巷弄長照站","fax":"0932-096946","mail":"dora10660604@gmail.com","name":"陳能娟","建立時間":"2023/10/23 上午 12:07:15"}},{"type":"Feature","geometry":{"type":"Point","coordinates":[121.2495422,24.97842598]},"properties":{"圖徵編號":"101","agency":"中華光明之家共生家園(復興據點)","data":"2019123114:05:59","county":"桃園市","town":"中壢區","address":"桃園市中壢區復興里長樂街39號","O_ABC":"C","Serve":"巷弄長照站","fax":"0932-107-268","mail":"80012433@mail.tycg.gov.tw","name":"李素蘭","建立時間":"2023/10/23 上午 12:07:15"}},{"type":"Feature","geometry":{"type":"Point","coordinates":[121.2574081,24.96802521]},"properties":{"圖徵編號":"102","agency":"活力診所","data":"2021012810:58:48","county":"桃園市","town":"中壢區","address":"桃園市中壢區山東里莊敬路160號2樓","O_ABC":"C","Serve":"巷弄長照站","fax":"03-4826241#323","mail":"4826241@gmail.com","name":"張聖暉","建立時間":"2023/10/23 上午 12:07:15"}},{"type":"Feature","geometry":{"type":"Point","coordinates":[121.3241119,24.97417259]},"properties":{"圖徵編號":"103","agency":"正興診所","data":"2023072013:32:36","county":"桃園市","town":"桃園區","address":"桃園市桃園區桃鶯路452號","O_ABC":"B","Serve":"居家失能個案家庭醫師照護服務","fax":"03-3635453","mail":"s220232@yahoo.com","name":"陳明仁","建立時間":"2023/10/23 上午 12:07:15"}},{"type":"Feature","geometry":{"type":"Point","coordinates":[121.0877838,25.04044914]},"properties":{"圖徵編號":"104","agency":"桃園市觀音區白玉社區發展會","data":"2021012717:17:39","county":"桃園市","town":"觀音區","address":"桃園市觀音區白玉里玉林路1段180號","O_ABC":"C","Serve":"巷弄長照站","fax":"03-4734160","mail":"kuang.rong@hotmail.com","name":"張阿琤","建立時間":"2023/10/23 上午 12:07:15"}},{"type":"Feature","geometry":{"type":"Point","coordinates":[121.2206116,24.9292984]},"properties":{"圖徵編號":"105","agency":"財團法人桃園市私立國宏老人長期照顧中心(養護型)","data":"2021012810:55:16","county":"桃園市","town":"平鎮區","address":"桃園市平鎮區北貴里關爺東路19-5號","O_ABC":"C","Serve":"巷弄長照站","fax":"03-4582977","mail":"chang7716@gmail.com","name":"吳黃玉英","建立時間":"2023/10/23 上午 12:07:15"}},{"type":"Feature","geometry":{"type":"Point","coordinates":[121.2295303,24.94515991]},"properties":{"圖徵編號":"106","agency":"黃文昌診所","data":"2023072015:06:40","county":"桃園市","town":"中壢區","address":"桃園市中壢區龍岡路二段123號","O_ABC":"B","Serve":"居家失能個案家庭醫師照護服務","fax":"03-2841928","mail":"coma@mail2000.com.tw","name":"黃文昌","建立時間":"2023/10/23 上午 12:07:15"}},{"type":"Feature","geometry":{"type":"Point","coordinates":[121.2616196,24.96172905]},"properties":{"圖徵編號":"107","agency":"桃園市中壢區中山里辦公處","data":"2021012716:39:15","county":"桃園市","town":"中壢區","address":"桃園市中壢區中山里榮民路396號","O_ABC":"C","Serve":"巷弄長照站","fax":"03-4632760","mail":"wwyww6666@yahoo.com.tw","name":"王寧政","建立時間":"2023/10/23 上午 12:07:15"}},{"type":"Feature","geometry":{"type":"Point","coordinates":[121.15271,25.0232563]},"properties":{"圖徵編號":"108","agency":"桃園市觀音區廣福社區發展協會","data":"2021012717:16:50","county":"桃園市","town":"觀音區","address":"桃園市觀音區廣福里福山路二段403巷6號","O_ABC":"C","Serve":"巷弄長照站","fax":"0932-282589","mail":"qwerty56@kimo.com","name":"王文進","建立時間":"2023/10/23 上午 12:07:15"}},{"type":"Feature","geometry":{"type":"Point","coordinates":[121.2047043,24.85390472]},"properties":{"圖徵編號":"109","agency":"桃園市新屋區下埔社區發展協會","data":"2021012717:11:50","county":"桃園市","town":"新屋區","address":"桃園市新屋區下埔里10-3號","O_ABC":"C","Serve":"巷弄長照站","fax":"0937-128686","mail":"proh99@ms51.hinet.net","name":"黃志材","建立時間":"2023/10/23 上午 12:07:15"}},{"type":"Feature","geometry":{"type":"Point","coordinates":[121.2141113,24.95651627]},"properties":{"圖徵編號":"110","agency":"社團法人桃園市愛鄰舍協會(新明據點)","data":"2019070116:26:36","county":"桃園市","town":"中壢區","address":"桃園市中壢區五福里中正路447號4樓","O_ABC":"B","Serve":"喘息服務","fax":"","mail":"sphyae683@hotmail.com","name":"林雄堅","建立時間":"2023/10/23 上午 12:07:15"}},{"type":"Feature","geometry":{"type":"Point","coordinates":[121.2049561,24.95422745]},"properties":{"圖徵編號":"111","agency":"桃園市平鎮區復興里辦公處","data":"2019081615:07:46","county":"桃園市","town":"平鎮區","address":"桃園市平鎮區復興里復興街55號","O_ABC":"C","Serve":"巷弄長照站","fax":"0919-992802","mail":"kungwei1102@mail2000.com.tw","name":"彭恭偉","建立時間":"2023/10/23 上午 12:07:15"}},{"type":"Feature","geometry":{"type":"Point","coordinates":[121.2792816,24.991539]},"properties":{"圖徵編號":"112","agency":"龍和診所","data":"2023072013:22:08","county":"桃園市","town":"桃園區","address":"桃園市桃園區龍安街153號","O_ABC":"B","Serve":"居家失能個案家庭醫師照護服務","fax":"03-3786145","mail":"yujaogjr@gmail.com","name":"楊紹輝","建立時間":"2023/10/23 上午 12:07:15"}},{"type":"Feature","geometry":{"type":"Point","coordinates":[121.2069397,24.91445732]},"properties":{"圖徵編號":"113","agency":"桃園市私立幸福家居家長照機構","data":"2023020116:23:36","county":"桃園市","town":"平鎮區","address":"桃園市平鎮區金星里大連街43號2樓","O_ABC":"B","Serve":"居家服務","fax":"0931-067-560","mail":"blessedhome0816@gmail.com","name":"葉日隆","建立時間":"2023/10/23 上午 12:07:15"}},{"type":"Feature","geometry":{"type":"Point","coordinates":[121.3384094,24.99147606]},"properties":{"圖徵編號":"114","agency":"桃園市龜山區衛生所","data":"2020123011:55:49","county":"桃園市","town":"龜山區","address":"桃園市龜山區自強南路103號","O_ABC":"B","Serve":"專業照護服務","fax":"03-3299645","mail":"10021351@mail.tycg.gov.tw","name":"陳建安","建立時間":"2023/10/23 上午 12:07:15"}},{"type":"Feature","geometry":{"type":"Point","coordinates":[121.2136765,24.8750267]},"properties":{"圖徵編號":"115","agency":"龍潭敏盛醫院","data":"2023030110:49:28","county":"桃園市","town":"龍潭區","address":"桃園市龍潭區中豐路168號","O_ABC":"B","Serve":"專業照護服務","fax":"03-4794151","mail":"P001872@e-ms.com.tw","name":"梁植池","建立時間":"2023/10/23 上午 12:07:15"}},{"type":"Feature","geometry":{"type":"Point","coordinates":[121.2421875,25.10837173]},"properties":{"圖徵編號":"116","agency":"桃園市大園區海口社區發展協會","data":"2021012716:11:22","county":"桃園市","town":"大園區","address":"桃園市大園區海口里漁港路15號","O_ABC":"C","Serve":"巷弄長照站","fax":"0963-074615","mail":"haikou87@outlook.com","name":"呂定麟","建立時間":"2023/10/23 上午 12:07:15"}},{"type":"Feature","geometry":{"type":"Point","coordinates":[121.367012,24.79517174]},"properties":{"圖徵編號":"117","agency":"財團法人伊甸社會福利基金會桃園市分事務所","data":"2019090309:07:45","county":"桃園市","town":"復興區","address":"桃園市復興區羅浮里4鄰92號","O_ABC":"C","Serve":"巷弄長照站","fax":"03-3822300","mail":"ccchungdaw@mohw.gov.tw","name":"待補","建立時間":"2023/10/23 上午 12:07:15"}},{"type":"Feature","geometry":{"type":"Point","coordinates":[121.2751236,24.98173714]},"properties":{"圖徵編號":"118","agency":"寬福護理之家蘆竹區","data":"2023012519:26:43","county":"桃園市","town":"桃園區","address":"桃園市桃園區中山路1288巷7號","O_ABC":"A","Serve":"個案管理服務","fax":"03-2170092","mail":"canfullaunit@gmail.com","name":"周矢綾","建立時間":"2023/10/23 上午 12:07:15"}},{"type":"Feature","geometry":{"type":"Point","coordinates":[121.3515778,24.81482887]},"properties":{"圖徵編號":"119","agency":"高揚威家醫科診所","data":"2023012519:42:26","county":"桃園市","town":"復興區","address":"桃園市復興區忠孝路32號","O_ABC":"A","Serve":"個案管理服務","fax":"03-3822839","mail":"alicewang19891030@gmail.com","name":"高揚威","建立時間":"2023/10/23 上午 12:07:15"}},{"type":"Feature","geometry":{"type":"Point","coordinates":[121.1811447,24.91302872]},"properties":{"圖徵編號":"120","agency":"財團法人臺北市阿瑪社會福利慈善事業基金會(四維據點)","data":"2021012715:11:43","county":"桃園市","town":"楊梅區","address":"桃園市楊梅區永寧里四維路118號","O_ABC":"C","Serve":"巷弄長照站","fax":"0982-985298","mail":"rebecca401010@gmail.com","name":"廖淑彩","建立時間":"2023/10/23 上午 12:07:15"}},{"type":"Feature","geometry":{"type":"Point","coordinates":[121.2918015,24.87620163]},"properties":{"圖徵編號":"121","agency":"大溪區農會附設護理之家","data":"2023020707:37:47","county":"桃園市","town":"大溪區","address":"桃園市大溪區一德里中華路343號3樓","O_ABC":"B","Serve":"喘息服務","fax":"03-3879688","mail":"nh0316@yahoo.com.tw","name":"陳玉娟","建立時間":"2023/10/23 上午 12:07:15"}},{"type":"Feature","geometry":{"type":"Point","coordinates":[121.2314148,24.95827866]},"properties":{"圖徵編號":"122","agency":"金色年代長照社團法人附設桃園市私立金色年華綜合長照機構","data":"2023011816:53:01","county":"桃園市","town":"中壢區","address":"桃園市中壢區普義里立和路58巷66號1樓、68號1至4樓、70號1樓","O_ABC":"B","Serve":"日間照顧服務","fax":"03-4623626","mail":"med01@tcmg.com.tw","name":"徐向謙","建立時間":"2023/10/23 上午 12:07:15"}},{"type":"Feature","geometry":{"type":"Point","coordinates":[121.2143097,24.94585991]},"properties":{"圖徵編號":"123","agency":"桃園市平鎮區新榮里辦公處","data":"2021012716:40:04","county":"桃園市","town":"平鎮區","address":"桃園市平鎮區高雙里振興西路112號","O_ABC":"C","Serve":"巷弄長照站","fax":"03-4929471","mail":"a0932103373@yahoo.com.tw","name":"鄧秀真","建立時間":"2023/10/23 上午 12:07:15"}},{"type":"Feature","geometry":{"type":"Point","coordinates":[121.1231613,25.05068207]},"properties":{"圖徵編號":"124","agency":"桃園市觀音區樹林社區發展協會","data":"2021012717:07:09","county":"桃園市","town":"觀音區","address":"桃園市觀音區樹林里泰安街209號","O_ABC":"C","Serve":"巷弄長照站","fax":"03-4834817","mail":"iting166@yahoo.com.tw","name":"袁進益","建立時間":"2023/10/23 上午 12:07:15"}},{"type":"Feature","geometry":{"type":"Point","coordinates":[121.1785126,24.96022606]},"properties":{"圖徵編號":"125","agency":"天成醫療社團法人天晟醫院中壢區","data":"2023012519:43:14","county":"桃園市","town":"中壢區","address":"桃園市中壢區延平路219號","O_ABC":"A","Serve":"個案管理服務","fax":"03-4621952","mail":"tcmgjt01@gmail.com","name":"鄭貴麟","建立時間":"2023/10/23 上午 12:07:15"}},{"type":"Feature","geometry":{"type":"Point","coordinates":[121.1374054,25.00338364]},"properties":{"圖徵編號":"126","agency":"桃園市觀音區大同里辦公處","data":"2019123117:16:49","county":"桃園市","town":"觀音區","address":"桃園市觀音區大同里新富路一段595號","O_ABC":"C","Serve":"巷弄長照站","fax":"03-4989839","mail":"h631600@kimo.com.tw","name":"劉秀華","建立時間":"2023/10/23 上午 12:07:15"}},{"type":"Feature","geometry":{"type":"Point","coordinates":[121.144455,24.91285133]},"properties":{"圖徵編號":"127","agency":"中華民國紅十字會桃園市分會楊梅區","data":"2023012519:35:37","county":"桃園市","town":"楊梅區","address":"桃園市楊梅區大模街10號2樓","O_ABC":"A","Serve":"個案管理服務","fax":"03-4855785","mail":"tyred3393531@gmail.com","name":"劉志清","建立時間":"2023/10/23 上午 12:07:15"}},{"type":"Feature","geometry":{"type":"Point","coordinates":[121.2926254,24.98759842]},"properties":{"圖徵編號":"128","agency":"桃園市私立弘成居家長照機構","data":"2023020116:22:15","county":"桃園市","town":"桃園區","address":"桃園市桃園區中山里中平路98號5樓之1","O_ABC":"B","Serve":"居家服務","fax":"03-2205627","mail":"honchen1002@gmail.com","name":"陳妤榛","建立時間":"2023/10/23 上午 12:07:15"}},{"type":"Feature","geometry":{"type":"Point","coordinates":[121.2973785,24.9906826]},"properties":{"圖徵編號":"129","agency":"中華民國紅十字會桃園市分會社團法人附設桃園市私立紅十字居家式服務類長期照顧服務機構","data":"2023022116:39:47","county":"桃園市","town":"桃園區","address":"桃園市桃園區泰山里中山路507巷12號6樓","O_ABC":"B","Serve":"喘息服務","fax":"03-3327656","mail":"ty.red@msa.hinet.net","name":"劉志清","建立時間":"2023/10/23 上午 12:07:15"}},{"type":"Feature","geometry":{"type":"Point","coordinates":[121.1821136,24.96069336]},"properties":{"圖徵編號":"130","agency":"全能居家職能治療所","data":"2023022013:42:54","county":"桃園市","town":"平鎮區","address":"桃園市平鎮區東社里15鄰社子3之21號2樓","O_ABC":"B","Serve":"專業照護服務","fax":"03-4609646","mail":"linhunglin1011@gmail.com","name":"林宏霖","建立時間":"2023/10/23 上午 12:07:15"}},{"type":"Feature","geometry":{"type":"Point","coordinates":[121.3278809,24.97044945]},"properties":{"圖徵編號":"131","agency":"聖傑診所","data":"2023072013:34:48","county":"桃園市","town":"八德區","address":"桃園市八德區桃鶯路85號","O_ABC":"B","Serve":"居家失能個案家庭醫師照護服務","fax":"03-3665155","mail":"bread3662408@gmail.com","name":"林永庚","建立時間":"2023/10/23 上午 12:07:15"}},{"type":"Feature","geometry":{"type":"Point","coordinates":[121.1939468,25.049263]},"properties":{"圖徵編號":"132","agency":"桃園市私立大溪老人長期照顧中心(養護型)","data":"2023032816:21:27","county":"桃園市","town":"大溪區","address":"桃園市大溪區一心里慈湖路85號4樓","O_ABC":"B","Serve":"喘息服務","fax":"","mail":"dasi8543870119@gmail.com","name":"謝鴻倫","建立時間":"2023/10/23 上午 12:07:15"}},{"type":"Feature","geometry":{"type":"Point","coordinates":[121.3095932,24.99971771]},"properties":{"圖徵編號":"133","agency":"桃園市私立睿齡居家長照機構","data":"2023022309:17:19","county":"桃園市","town":"桃園區","address":"桃園市桃園區三民路二段286之3號4樓","O_ABC":"B","Serve":"喘息服務","fax":"03-3330912","mail":"ltc87334546@gmail.com","name":"楊美雅","建立時間":"2023/10/23 上午 12:07:15"}},{"type":"Feature","geometry":{"type":"Point","coordinates":[121.2123108,24.95008087]},"properties":{"圖徵編號":"134","agency":"陽明醫院附設護理之家","data":"2023050511:08:03","county":"桃園市","town":"平鎮區","address":"桃園市平鎮區義興里延平路二段56號3樓","O_ABC":"B","Serve":"喘息服務","fax":"03-4929929","mail":"n0936848505@yahoo.com.tw","name":"袁淑芬","建立時間":"2023/10/23 上午 12:07:15"}},{"type":"Feature","geometry":{"type":"Point","coordinates":[121.3651123,24.77852821]},"properties":{"圖徵編號":"135","agency":"財團法人台灣基督長老教會泰雅爾中會義興教會","data":"2019091211:55:38","county":"桃園市","town":"復興區","address":"桃園市復興區義盛里義興9鄰7號","O_ABC":"C","Serve":"巷弄長照站","fax":"03-3821018","mail":"10019341@mail.tycg.gov.tw","name":"王曉貞","建立時間":"2023/10/23 上午 12:07:15"}},{"type":"Feature","geometry":{"type":"Point","coordinates":[121.2185898,24.86953926]},"properties":{"圖徵編號":"136","agency":"金色年代長照社團法人附設桃園市私立天慈綜合長照機構","data":"2023020110:30:33","county":"桃園市","town":"龍潭區","address":"桃園市龍潭區中山里010鄰北龍路311巷35弄20號1樓","O_ABC":"B","Serve":"喘息服務","fax":"03-4802022","mail":"daycare01@tcmg.com.tw","name":"徐向謙","建立時間":"2023/10/23 上午 12:07:15"}},{"type":"Feature","geometry":{"type":"Point","coordinates":[121.3328552,24.99484634]},"properties":{"圖徵編號":"137","agency":"社團法人桃園市社會服務關懷協會附設桃園市私立愈安社區式服務類長期照顧服務機構","data":"2023022212:02:59","county":"桃園市","town":"龜山區","address":"桃園市龜山區新路里陸光路55號1樓","O_ABC":"B","Serve":"日間照顧服務","fax":"03-3181946","mail":"yujiannursing@gmail.com","name":"賴秋梅","建立時間":"2023/10/23 上午 12:07:15"}},{"type":"Feature","geometry":{"type":"Point","coordinates":[121.2392197,24.96203995]},"properties":{"圖徵編號":"138","agency":"桃園市中壢區忠義里辦公處","data":"2021012810:38:50","county":"桃園市","town":"中壢區","address":"桃園市中壢區忠義里忠義路69-1號","O_ABC":"C","Serve":"巷弄長照站","fax":"0937-404829","mail":"ray.jung999@gmail.com","name":"簡秋榮","建立時間":"2023/10/23 上午 12:07:15"}},{"type":"Feature","geometry":{"type":"Point","coordinates":[121.212616,24.88698959]},"properties":{"圖徵編號":"139","agency":"拾全拾美樂齡事業有限公司附設桃園市私立潛龍綜合長照機構","data":"2023020110:31:01","county":"桃園市","town":"龍潭區","address":"桃園市龍潭區烏樹林6鄰中豐路640號之2","O_ABC":"B","Serve":"居家服務","fax":"03-4990906","mail":"Perfect9068@gmail.com","name":"王運昌","建立時間":"2023/10/23 上午 12:07:15"}},{"type":"Feature","geometry":{"type":"Point","coordinates":[121.2045822,24.94553947]},"properties":{"圖徵編號":"140","agency":"桃園市平鎮區平興里辦公處","data":"2021012917:50:25","county":"桃園市","town":"平鎮區","address":"桃園市平鎮區平興里廣泰路85號","O_ABC":"C","Serve":"巷弄長照站","fax":"03-4014415","mail":"104138@mail.tycg.gov.tw","name":"陳金容","建立時間":"2023/10/23 上午 12:07:15"}},{"type":"Feature","geometry":{"type":"Point","coordinates":[121.2918625,25.01548386]},"properties":{"圖徵編號":"141","agency":"敬一銀齡事業股份有限公司附設桃園市私立寶平綜合長照機構","data":"2023011817:16:55","county":"桃園市","town":"桃園區","address":"桃園市桃園區寶安里南平路598號1樓","O_ABC":"B","Serve":"居家服務","fax":"03-3017188","mail":"judy@genuinecare.com.tw","name":"楊宜菁","建立時間":"2023/10/23 上午 12:07:15"}},{"type":"Feature","geometry":{"type":"Point","coordinates":[121.1452713,24.90494347]},"properties":{"圖徵編號":"142","agency":"社團法人台灣樂活服務發展協會(宣聖堂據點)","data":"2019062614:06:34","county":"桃園市","town":"楊梅區","address":"桃園市楊梅區紅梅里校前路32巷25-1號1樓","O_ABC":"B","Serve":"喘息服務","fax":"0982-985298","mail":"rebecca401010@gmail.com","name":"馬瑞辰","建立時間":"2023/10/23 上午 12:07:15"}},{"type":"Feature","geometry":{"type":"Point","coordinates":[121.3065414,24.99762726]},"properties":{"圖徵編號":"143","agency":"瑞之盟居家語言治療所","data":"2023022111:52:03","county":"桃園市","town":"桃園區","address":"桃園市桃園區三民路三段28-1號3樓-1","O_ABC":"B","Serve":"專業照護服務","fax":"0907-010-671","mail":"melanie01201985@gmail.com","name":"王星懿","建立時間":"2023/10/23 上午 12:07:15"}},{"type":"Feature","geometry":{"type":"Point","coordinates":[121.2112274,24.83673286]},"properties":{"圖徵編號":"144","agency":"桃園市私立龍祥老人長期照顧中心(長期照護型)","data":"2021032216:43:05","county":"桃園市","town":"龍潭區","address":"桃園市龍潭區高揚南路97-1號","O_ABC":"B","Serve":"喘息服務","fax":"03-4718976","mail":"ls4718976@gmail.com","name":"賴庭槐","建立時間":"2023/10/23 上午 12:07:15"}},{"type":"Feature","geometry":{"type":"Point","coordinates":[121.2832489,24.92723465]},"properties":{"圖徵編號":"145","agency":"承源資業股份有限公司附設桃園市私立聯承居家長照機構","data":"2023032711:37:24","county":"桃園市","town":"八德區","address":"桃園市八德區興仁里中興街8號","O_ABC":"B","Serve":"喘息服務","fax":"03-3683328","mail":"isabel@thn-buurtzorg.com","name":"張宏庠","建立時間":"2023/10/23 上午 12:07:15"}},{"type":"Feature","geometry":{"type":"Point","coordinates":[121.2932358,25.03899384]},"properties":{"圖徵編號":"146","agency":"桃園市蘆竹區南興里辦公處","data":"2021020116:14:44","county":"桃園市","town":"蘆竹區","address":"桃園市蘆竹區南興里南福街167號","O_ABC":"C","Serve":"巷弄長照站","fax":"0915-100-859","mail":"cwt40941@gmail.com","name":"江惠珍","建立時間":"2023/10/23 上午 12:07:15"}},{"type":"Feature","geometry":{"type":"Point","coordinates":[121.2314682,24.91046715]},"properties":{"圖徵編號":"147","agency":"桃園市平鎮區東勢社區發展協會","data":"2021012718:02:07","county":"桃園市","town":"平鎮區","address":"桃園市平鎮區東勢里金陵路五段55號","O_ABC":"C","Serve":"巷弄長照站","fax":"03-4500999","mail":"l37117@yahoo.com.tw","name":"游明臺","建立時間":"2023/10/23 上午 12:07:15"}},{"type":"Feature","geometry":{"type":"Point","coordinates":[121.3059692,24.99091911]},"properties":{"圖徵編號":"148","agency":"桃園市桃園區南門社區發展協會","data":"2019123115:41:54","county":"桃園市","town":"桃園區","address":"桃園市桃園區南門里三民路三段268號","O_ABC":"C","Serve":"巷弄長照站","fax":"0918-686979","mail":"chang470903@gmail.com","name":"吳宏泰","建立時間":"2023/10/23 上午 12:07:15"}},{"type":"Feature","geometry":{"type":"Point","coordinates":[121.2798004,24.98606873]},"properties":{"圖徵編號":"149","agency":"智浩企業有限公司附設桃園市私立瑞欣綜合長照機構","data":"2023011817:04:12","county":"桃園市","town":"桃園區","address":"桃園市桃園區龍鳳里龍鳳三街65巷38號","O_ABC":"B","Serve":"日間照顧服務","fax":"(03)369-6882","mail":"rueishindaycare@gmail.com","name":"陳昱全","建立時間":"2023/10/23 上午 12:07:15"}},{"type":"Feature","geometry":{"type":"Point","coordinates":[121.2798004,24.98606873]},"properties":{"圖徵編號":"150","agency":"智浩企業有限公司附設桃園市私立瑞欣綜合長照機構","data":"2023011814:34:15","county":"桃園市","town":"桃園區","address":"桃園市桃園區龍鳳里龍鳳三街65巷38號","O_ABC":"B","Serve":"喘息服務","fax":"(03)369-6882","mail":"rueishindaycare@gmail.com","name":"陳昱全","建立時間":"2023/10/23 上午 12:07:15"}},{"type":"Feature","geometry":{"type":"Point","coordinates":[121.1860657,24.99725914]},"properties":{"圖徵編號":"151","agency":"晴天居家護理所","data":"2023040610:23:40","county":"桃園市","town":"平鎮區","address":"桃園市平鎮區中豐路110號2樓","O_ABC":"B","Serve":"專業照護服務","fax":"0935-800-983","mail":"sd.homecare429@gmail.com","name":"王曉倩","建立時間":"2023/10/23 上午 12:07:15"}},{"type":"Feature","geometry":{"type":"Point","coordinates":[121.1572952,24.90833855]},"properties":{"圖徵編號":"152","agency":"桃園市私立雲鵬老人長期照顧中心(養護型)","data":"2023030110:09:02","county":"桃園市","town":"楊梅區","address":"桃園市楊梅區中山北路一段319號","O_ABC":"B","Serve":"喘息服務","fax":"03-4881300","mail":"yunpp.ltcc@gmail.com","name":"李鈺堂","建立時間":"2023/10/23 上午 12:07:15"}},{"type":"Feature","geometry":{"type":"Point","coordinates":[121.3009872,25.02059174]},"properties":{"圖徵編號":"153","agency":"桃園市私立同安老人長期照顧中心(養護型)","data":"2023022116:01:41","county":"桃園市","town":"桃園區","address":"桃園市桃園區新埔七街101號1樓","O_ABC":"B","Serve":"喘息服務","fax":"03-3552546","mail":"tongn101@yahoo.com.tw","name":"曾國銘","建立時間":"2023/10/23 上午 12:07:15"}},{"type":"Feature","geometry":{"type":"Point","coordinates":[121.305542,24.96800804]},"properties":{"圖徵編號":"154","agency":"致樂居家物理治療所","data":"2023022111:42:32","county":"桃園市","town":"桃園區","address":"桃園市桃園區仁愛路87巷1號4F之3","O_ABC":"B","Serve":"專業照護服務","fax":"03-3700102","mail":"chun6354@gmail.com","name":"林怡君","建立時間":"2023/10/23 上午 12:07:15"}},{"type":"Feature","geometry":{"type":"Point","coordinates":[121.1485214,24.90137863]},"properties":{"圖徵編號":"155","agency":"惠好居家職能治療所","data":"2021030316:42:20","county":"桃園市","town":"楊梅區","address":"桃園市楊梅區校前路254巷55號10樓","O_ABC":"B","Serve":"專業照護服務","fax":"0936-999246","mail":"tenglendon@gmail.com","name":"鄧金春","建立時間":"2023/10/23 上午 12:07:15"}},{"type":"Feature","geometry":{"type":"Point","coordinates":[121.3176041,24.99581146]},"properties":{"圖徵編號":"156","agency":"桃園市私立祥育居家式服務類長期照顧服務機構","data":"2023020113:42:39","county":"桃園市","town":"桃園區","address":"桃園市桃園區成功里中央街26號2樓","O_ABC":"B","Serve":"居家服務","fax":"03-3333623","mail":"shyang.yu1031@gmail.com","name":"彭清湘","建立時間":"2023/10/23 上午 12:07:15"}},{"type":"Feature","geometry":{"type":"Point","coordinates":[121.2935028,24.99146461]},"properties":{"圖徵編號":"157","agency":"桃園市中路交流協會","data":"2021012915:19:37","county":"桃園市","town":"桃園區","address":"桃園市桃園區中路里桃園市桃園區中路里中山路710號","O_ABC":"C","Serve":"巷弄長照站","fax":"0987-222-548","mail":"sales@forcom.com.tw","name":"?麗芳","建立時間":"2023/10/23 上午 12:07:15"}},{"type":"Feature","geometry":{"type":"Point","coordinates":[121.3068466,24.99479294]},"properties":{"圖徵編號":"158","agency":"財團法人桃園市私立怡德老人長期照顧中心(養護型)附設桃園市私立怡德綜合長照機構","data":"2023011816:39:26","county":"桃園市","town":"桃園區","address":"桃園市桃園區西門里005鄰和興街17號","O_ABC":"B","Serve":"日間照顧服務","fax":"03-3373488","mail":"wg27520@yahoo.com.tw","name":"林哲弘","建立時間":"2023/10/23 上午 12:07:15"}},{"type":"Feature","geometry":{"type":"Point","coordinates":[121.212616,24.88698959]},"properties":{"圖徵編號":"159","agency":"拾全拾美樂齡事業有限公司附設桃園市私立潛龍綜合長照機構","data":"2023020110:31:01","county":"桃園市","town":"龍潭區","address":"桃園市龍潭區烏樹林6鄰中豐路640號之2","O_ABC":"B","Serve":"交通接送服務","fax":"03-4990906","mail":"Perfect9068@gmail.com","name":"王運昌","建立時間":"2023/10/23 上午 12:07:15"}},{"type":"Feature","geometry":{"type":"Point","coordinates":[121.31633,24.99124718]},"properties":{"圖徵編號":"160","agency":"愛爾德長者事業有限公司附設桃園市私立喜大人東門社區長照機構","data":"2023011817:15:49","county":"桃園市","town":"桃園區","address":"桃園市桃園區東山里安東街17號2樓","O_ABC":"B","Serve":"喘息服務","fax":"03-3344062","mail":"dongmen@joyelder.org.tw","name":"廖思琪","建立時間":"2023/10/23 上午 12:07:15"}},{"type":"Feature","geometry":{"type":"Point","coordinates":[121.0280457,24.98815537]},"properties":{"圖徵編號":"161","agency":"桃園市新屋區永安社區發展協會","data":"2021012717:11:34","county":"桃園市","town":"新屋區","address":"桃園市新屋區新屋里保生路55號","O_ABC":"C","Serve":"巷弄長照站","fax":"0921-872361","mail":"g06172000@yahoo.com.tw","name":"張順佳","建立時間":"2023/10/23 上午 12:07:15"}},{"type":"Feature","geometry":{"type":"Point","coordinates":[121.2995758,24.98735619]},"properties":{"圖徵編號":"162","agency":"廣元長照社團法人附設桃園市私立元德綜合長照機構","data":"2023011816:58:42","county":"桃園市","town":"桃園區","address":"桃園市桃園區泰山里003鄰潮洲街78號1樓","O_ABC":"B","Serve":"日間照顧服務","fax":"03-3322049","mail":"maymayteski@yahoo.com.tw","name":"黃晟恆","建立時間":"2023/10/23 上午 12:07:15"}},{"type":"Feature","geometry":{"type":"Point","coordinates":[121.1827087,24.9002037]},"properties":{"圖徵編號":"163","agency":"財團法人台灣省私立桃園仁愛之家","data":"2023011711:18:45","county":"桃園市","town":"楊梅區","address":"桃園市楊梅區高榮里梅獅路539巷3號","O_ABC":"B","Serve":"喘息服務","fax":"03-4643385","mail":"tych.service@gmail.com","name":"李建榮","建立時間":"2023/10/23 上午 12:07:15"}},{"type":"Feature","geometry":{"type":"Point","coordinates":[121.2899399,25.04007149]},"properties":{"圖徵編號":"164","agency":"宜杏居家護理所","data":"2023040711:37:49","county":"桃園市","town":"蘆竹區","address":"桃園市蘆竹區忠孝西路169巷20之6號4樓","O_ABC":"B","Serve":"專業照護服務","fax":"","mail":"alina1105tw@gmail.com","name":"陳美娟","建立時間":"2023/10/23 上午 12:07:15"}},{"type":"Feature","geometry":{"type":"Point","coordinates":[121.1485214,24.90137863]},"properties":{"圖徵編號":"165","agency":"惠好居家職能治療所","data":"2022020909:03:41","county":"桃園市","town":"楊梅區","address":"桃園市楊梅區校前路254巷55號10樓","O_ABC":"B","Serve":"專業照護服務","fax":"0936-999246","mail":"tenglendon@gmail.com","name":"鄧金春","建立時間":"2023/10/23 上午 12:07:15"}},{"type":"Feature","geometry":{"type":"Point","coordinates":[121.2245255,24.9586277]},"properties":{"圖徵編號":"166","agency":"桃園市私立安安居家長照機構","data":"2023022016:09:23","county":"桃園市","town":"中壢區","address":"桃園市中壢區中央里延平路429號10樓之一","O_ABC":"B","Serve":"喘息服務","fax":"03-4265391","mail":"ananhomecare@gmail.com","name":"蔣建宇","建立時間":"2023/10/23 上午 12:07:15"}},{"type":"Feature","geometry":{"type":"Point","coordinates":[121.289772,25.00784874]},"properties":{"圖徵編號":"167","agency":"桃園市社區文化推廣協會","data":"2021012718:03:44","county":"桃園市","town":"桃園區","address":"桃園市桃園區中埔里天台街一巷7號","O_ABC":"C","Serve":"巷弄長照站","fax":"0910-910812","mail":"a0971248348@gmail.com","name":"黃玉鑾","建立時間":"2023/10/23 上午 12:07:15"}},{"type":"Feature","geometry":{"type":"Point","coordinates":[121.3012238,25.01895332]},"properties":{"圖徵編號":"168","agency":"桃園市私立好馨情社區長照機構","data":"2023011817:18:26","county":"桃園市","town":"桃園區","address":"桃園市桃園區同安里同安街431號","O_ABC":"B","Serve":"喘息服務","fax":"033-461-136","mail":"T3461136@hibox.biz","name":"蔡政哲","建立時間":"2023/10/23 上午 12:07:15"}},{"type":"Feature","geometry":{"type":"Point","coordinates":[121.2945557,24.99601555]},"properties":{"圖徵編號":"169","agency":"億家安居家物理治療所","data":"2023022111:46:37","county":"桃園市","town":"桃園區","address":"桃園市桃園區正康二街36號","O_ABC":"B","Serve":"專業照護服務","fax":"03-3363431","mail":"wholecarept@gmail.com","name":"李?宇","建立時間":"2023/10/23 上午 12:07:15"}},{"type":"Feature","geometry":{"type":"Point","coordinates":[121.3035049,24.99825668]},"properties":{"圖徵編號":"170","agency":"世豪小客車租賃有限公司","data":"2023020310:39:46","county":"桃園市","town":"桃園區","address":"桃園市桃園區永安路223號3樓","O_ABC":"B","Serve":"交通接送服務","fax":"03-331-6367","mail":"peggyhuang6924@gmail.com","name":"舒茂松","建立時間":"2023/10/23 上午 12:07:15"}},{"type":"Feature","geometry":{"type":"Point","coordinates":[121.2781143,25.05712509]},"properties":{"圖徵編號":"171","agency":"職物語居家職能治療所","data":"2023080217:19:14","county":"桃園市","town":"蘆竹區","address":"桃園市蘆竹區南崁路2段83號18樓之3(1826室)","O_ABC":"B","Serve":"專業照護服務(CC01)","fax":"0913-820528","mail":"ops1080322@gmail.com","name":"李柏毅","建立時間":"2023/10/23 上午 12:07:15"}},{"type":"Feature","geometry":{"type":"Point","coordinates":[121.0820313,25.03661346]},"properties":{"圖徵編號":"172","agency":"桃園市觀音區觀音社區發展協會","data":"2021012810:27:28","county":"桃園市","town":"觀音區","address":"桃園市觀音區觀音里中山路8號","O_ABC":"C","Serve":"巷弄長照站","fax":"03-4733519","mail":"aa01040608@gmail.com","name":"葉澄淼","建立時間":"2023/10/23 上午 12:07:15"}},{"type":"Feature","geometry":{"type":"Point","coordinates":[121.227623,24.96177673]},"properties":{"圖徵編號":"173","agency":"天成醫療社團法人附設桃園市私立金色年代綜合式服務類長期照顧服務機構","data":"2023011816:48:15","county":"桃園市","town":"中壢區","address":"桃園市中壢區新街里006鄰延平路219號","O_ABC":"B","Serve":"喘息服務","fax":"03-4620085","mail":"homecare01@tcmg.com.tw","name":"徐慧伊","建立時間":"2023/10/23 上午 12:07:15"}},{"type":"Feature","geometry":{"type":"Point","coordinates":[121.2348251,24.87696838]},"properties":{"圖徵編號":"174","agency":"國軍桃園總醫院附設護理之家","data":"2023030110:58:59","county":"桃園市","town":"龍潭區","address":"桃園市龍潭區九龍里中興路九龍段168號","O_ABC":"B","Serve":"喘息服務","fax":"03-4799595","mail":"nathan@aftygh.gov.tw","name":"王姿婷","建立時間":"2023/10/23 上午 12:07:15"}},{"type":"Feature","geometry":{"type":"Point","coordinates":[121.2945557,24.99601555]},"properties":{"圖徵編號":"175","agency":"億家安居家物理治療所","data":"2022020816:46:52","county":"桃園市","town":"桃園區","address":"桃園市桃園區正康二街36號","O_ABC":"B","Serve":"專業照護服務","fax":"03-3363431","mail":"wholecarept@gmail.com","name":"李?宇","建立時間":"2023/10/23 上午 12:07:15"}},{"type":"Feature","geometry":{"type":"Point","coordinates":[121.3635483,25.06034088]},"properties":{"圖徵編號":"176","agency":"曦優居家護理所","data":"2023022013:43:59","county":"桃園市","town":"龜山區","address":"桃園市龜山區光峰路千禧新城9號1樓","O_ABC":"B","Serve":"專業照護服務","fax":"03-2137588","mail":"ceonursing09@gmail.com","name":"張佩雯","建立時間":"2023/10/23 上午 12:07:15"}},{"type":"Feature","geometry":{"type":"Point","coordinates":[121.3054276,24.99428749]},"properties":{"圖徵編號":"177","agency":"敏盛綜合醫院附設護理之家","data":"2023022115:39:50","county":"桃園市","town":"桃園區","address":"桃園市桃園區西門里三民路三段106號6樓","O_ABC":"B","Serve":"喘息服務","fax":"03-3379340-620","mail":"babybottle2277@gmail.com","name":"葉雅萍","建立時間":"2023/10/23 上午 12:07:15"}},{"type":"Feature","geometry":{"type":"Point","coordinates":[121.2975235,24.96430016]},"properties":{"圖徵編號":"178","agency":"有限責任桃園市宜興照顧服務勞動合作社附設桃園市私立宜興居家長照機構","data":"2023030610:40:48","county":"桃園市","town":"八德區","address":"桃園市八德區大智里25鄰大智路99號4樓","O_ABC":"B","Serve":"居家服務","fax":"03-3631977","mail":"yixingcare@gmail.com","name":"吳建宏","建立時間":"2023/10/23 上午 12:07:15"}},{"type":"Feature","geometry":{"type":"Point","coordinates":[121.2691879,24.97770309]},"properties":{"圖徵編號":"179","agency":"衛生福利部桃園醫院居家式服務類長期照顧服務機構","data":"2023020208:48:30","county":"桃園市","town":"桃園區","address":"桃園市桃園區龍山里中山路1492號","O_ABC":"B","Serve":"居家服務","fax":"03-3699721","mail":"705001@mail.tygh.gov.tw","name":"陳日昌","建立時間":"2023/10/23 上午 12:07:15"}},{"type":"Feature","geometry":{"type":"Point","coordinates":[121.2995758,24.98735619]},"properties":{"圖徵編號":"180","agency":"廣元長照社團法人附設桃園市私立元德綜合長照機構","data":"2023022116:35:59","county":"桃園市","town":"桃園區","address":"桃園市桃園區泰山里003鄰潮洲街78號1樓","O_ABC":"B","Serve":"喘息服務","fax":"03-3322049","mail":"maymayteski@yahoo.com.tw","name":"黃晟恆","建立時間":"2023/10/23 上午 12:07:15"}},{"type":"Feature","geometry":{"type":"Point","coordinates":[121.3847656,25.05792618]},"properties":{"圖徵編號":"181","agency":"桃園市龜山區長庚里辦公處","data":"2021012810:49:29","county":"桃園市","town":"龜山區","address":"桃園市龜山區長庚里長庚醫護新村80號B1","O_ABC":"C","Serve":"巷弄長照站","fax":"0936-221-811","mail":"a411126@gmail.com","name":"林俊源","建立時間":"2023/10/23 上午 12:07:15"}},{"type":"Feature","geometry":{"type":"Point","coordinates":[121.1939468,25.049263]},"properties":{"圖徵編號":"182","agency":"桃園市私立大溪老人長期照顧中心(養護型)","data":"2023011814:53:35","county":"桃園市","town":"大溪區","address":"桃園市大溪區一心里慈湖路85號4樓","O_ABC":"B","Serve":"喘息服務","fax":"","mail":"dasi8543870119@gmail.com","name":"謝鴻倫","建立時間":"2023/10/23 上午 12:07:15"}},{"type":"Feature","geometry":{"type":"Point","coordinates":[121.1666641,24.90822411]},"properties":{"圖徵編號":"183","agency":"天成醫院楊梅區","data":"2023012519:47:19","county":"桃園市","town":"楊梅區","address":"桃園市楊梅區中山北路1段356號","O_ABC":"A","Serve":"個案管理服務","fax":"03-4782350","mail":"aunit.tcmg01@gmail.com","name":"徐萬興","建立時間":"2023/10/23 上午 12:07:15"}},{"type":"Feature","geometry":{"type":"Point","coordinates":[121.2937469,25.01633453]},"properties":{"圖徵編號":"184","agency":"良祺復健科診所","data":"2023022409:39:43","county":"桃園市","town":"桃園區","address":"桃園市桃園區南平路516號2樓","O_ABC":"B","Serve":"專業照護服務","fax":"03-3467890","mail":"dblinwang@yahoo.com","name":"陳祺賢","建立時間":"2023/10/23 上午 12:07:15"}},{"type":"Feature","geometry":{"type":"Point","coordinates":[121.3083572,24.93862343]},"properties":{"圖徵編號":"185","agency":"國軍退除役官兵輔導委員會桃園榮譽國民之家附設悅來社區長照機構","data":"2023011816:07:43","county":"桃園市","town":"八德區","address":"桃園市八德區大信里興豐路1217號","O_ABC":"B","Serve":"日間照顧服務","fax":"03-3681140分機370、371林秦玲","mail":"vhtyu0129@mail5.vac.gov.tw","name":"陳平","建立時間":"2023/10/23 上午 12:07:15"}},{"type":"Feature","geometry":{"type":"Point","coordinates":[121.299202,25.05477333]},"properties":{"圖徵編號":"186","agency":"橙莘健康生活有限公司附設桃園市私立橙莘居家長照機構","data":"2023020117:15:00","county":"桃園市","town":"蘆竹區","address":"桃園市蘆竹區羊稠里中山路72號4樓","O_ABC":"B","Serve":"居家服務","fax":"03-2221256","mail":"chengsin2021@gmail.com","name":"高子權","建立時間":"2023/10/23 上午 12:07:15"}},{"type":"Feature","geometry":{"type":"Point","coordinates":[121.2572861,24.96393204]},"properties":{"圖徵編號":"187","agency":"桃園市私立長祐老人長期照顧中心(養護型)","data":"2023020707:26:01","county":"桃園市","town":"中壢區","address":"桃園市中壢區自治里環中東路188、190號二樓","O_ABC":"B","Serve":"喘息服務","fax":"03-4356337","mail":"hf5755.shen@msa.hinet.net","name":"沈益平","建立時間":"2023/10/23 上午 12:07:15"}},{"type":"Feature","geometry":{"type":"Point","coordinates":[121.3176041,24.99581146]},"properties":{"圖徵編號":"188","agency":"桃園市私立祥育居家式服務類長期照顧服務機構","data":"2023022014:46:10","county":"桃園市","town":"桃園區","address":"桃園市桃園區成功里中央街26號2樓","O_ABC":"B","Serve":"喘息服務","fax":"03-3333623","mail":"shyang.yu1031@gmail.com","name":"彭清湘","建立時間":"2023/10/23 上午 12:07:15"}},{"type":"Feature","geometry":{"type":"Point","coordinates":[121.2986984,25.04971313]},"properties":{"圖徵編號":"189","agency":"桃園市蘆竹區吉祥社區發展協會","data":"2021012810:16:26","county":"桃園市","town":"蘆竹區","address":"桃園市蘆竹區吉祥里吉林路105號","O_ABC":"C","Serve":"巷弄長照站","fax":"0939-264626","mail":"jamescyu@ms48.hinet.net","name":"游建忠","建立時間":"2023/10/23 上午 12:07:15"}},{"type":"Feature","geometry":{"type":"Point","coordinates":[121.1959534,25.06231117]},"properties":{"圖徵編號":"190","agency":"大園敏盛醫院附設居家護理所","data":"2023030110:59:49","county":"桃園市","town":"大園區","address":"桃園市大園區華中街2號","O_ABC":"B","Serve":"專業照護服務","fax":"03-3867521","mail":"n0117151@gmail.com","name":"許月香","建立時間":"2023/10/23 上午 12:07:15"}},{"type":"Feature","geometry":{"type":"Point","coordinates":[121.3009872,24.99305725]},"properties":{"圖徵編號":"191","agency":"桃園區文化健康站","data":"2020041716:48:52","county":"桃園市","town":"桃園區","address":"桃園市桃園區縣府路1號","O_ABC":"C","Serve":"巷弄長照站","fax":"03-3322101#6686","mail":"10019341@mail.tycg.gov.tw","name":"溫彧青","建立時間":"2023/10/23 上午 12:07:15"}},{"type":"Feature","geometry":{"type":"Point","coordinates":[121.2862015,25.08615112]},"properties":{"圖徵編號":"192","agency":"愛爾德長者事業有限公司附設桃園市私立喜大人冠怡社區長照機構","data":"2023011817:03:10","county":"桃園市","town":"蘆竹區","address":"桃園市蘆竹區濱海里海山路14號2樓","O_ABC":"B","Serve":"喘息服務","fax":"03-287-3224","mail":"jayg1981111108@gmail.com","name":"廖思琪","建立時間":"2023/10/23 上午 12:07:15"}},{"type":"Feature","geometry":{"type":"Point","coordinates":[121.2976608,25.00242805]},"properties":{"圖徵編號":"193","agency":"博善健康股份有限公司附設桃園市私立博樂居家長照機構","data":"2023020117:16:10","county":"桃園市","town":"桃園區","address":"桃園市桃園區永安路445號","O_ABC":"B","Serve":"居家服務","fax":"03-216-0026","mail":"boshan052021@gmail.com","name":"陳諺弘","建立時間":"2023/10/23 上午 12:07:15"}},{"type":"Feature","geometry":{"type":"Point","coordinates":[121.297699,25.0189209]},"properties":{"圖徵編號":"194","agency":"桃園市私立茂庭社區長照機構","data":"2023011817:01:42","county":"桃園市","town":"桃園區","address":"桃園市桃園區莊敬里中正路1224巷1-1號2樓","O_ABC":"B","Serve":"喘息服務","fax":"03-3571210分機15","mail":"maotingting99@gmail.com","name":"李麗珠","建立時間":"2023/10/23 上午 12:07:15"}},{"type":"Feature","geometry":{"type":"Point","coordinates":[121.1870956,24.99055862]},"properties":{"圖徵編號":"195","agency":"懷寧護理之家","data":"2023011816:58:34","county":"桃園市","town":"中壢區","address":"桃園市中壢區月眉里崇德三路250號1至4樓、252號1至4樓","O_ABC":"B","Serve":"喘息服務","fax":"03-4080143","mail":"v0989326287@gmail.com","name":"楊少如","建立時間":"2023/10/23 上午 12:07:15"}},{"type":"Feature","geometry":{"type":"Point","coordinates":[121.2585983,24.97531319]},"properties":{"圖徵編號":"196","agency":"桃園市中壢區福德里辦公處","data":"2021012810:39:46","county":"桃園市","town":"中壢區","address":"桃園市中壢區福德里9鄰成功路79巷54號","O_ABC":"C","Serve":"巷弄長照站","fax":"03-4332875203-43328873","mail":"wang0989467325@yahoo.com.tw","name":"王菁華","建立時間":"2023/10/23 上午 12:07:15"}},{"type":"Feature","geometry":{"type":"Point","coordinates":[121.3176041,24.99581146]},"properties":{"圖徵編號":"197","agency":"桃園市私立恩澤老人長期照顧中心(養護型)","data":"2023022114:43:50","county":"桃園市","town":"桃園區","address":"桃園市桃園區中央街26號1樓","O_ABC":"B","Serve":"喘息服務","fax":"03-3333636","mail":"enze.center@gmail.com","name":"李靜怡","建立時間":"2023/10/23 上午 12:07:15"}},{"type":"Feature","geometry":{"type":"Point","coordinates":[121.0765076,24.96204376]},"properties":{"圖徵編號":"198","agency":"桃園市新屋區社子社區發展協會","data":"2021012717:13:14","county":"桃園市","town":"新屋區","address":"桃園市新屋區社子里3-1號","O_ABC":"C","Serve":"巷弄長照站","fax":"0988-808582","mail":"god020533@yahoo.com.tw","name":"賴清潭","建立時間":"2023/10/23 上午 12:07:15"}},{"type":"Feature","geometry":{"type":"Point","coordinates":[121.1991119,24.91446304]},"properties":{"圖徵編號":"199","agency":"天成醫療社團法人天晟醫院龍潭區","data":"2023012519:42:56","county":"桃園市","town":"平鎮區","address":"桃園市平鎮區中豐路南勢二段117號三樓B區","O_ABC":"A","Serve":"個案管理服務","fax":"03-4397573","mail":"tcmgjt05@gmail.com","name":"鄭貴麟","建立時間":"2023/10/23 上午 12:07:15"}},{"type":"Feature","geometry":{"type":"Point","coordinates":[121.2986221,24.98673058]},"properties":{"圖徵編號":"200","agency":"桃園市桃園區泰山里辦公處","data":"2019123115:33:04","county":"桃園市","town":"桃園區","address":"桃園市桃園區泰山里宏昌六街19巷96號","O_ABC":"C","Serve":"巷弄長照站","fax":"03-3339168","mail":"80012095@mail.tycg.gov.tw","name":"游輝居","建立時間":"2023/10/23 上午 12:07:15"}},{"type":"Feature","geometry":{"type":"Point","coordinates":[121.2576675,24.96469688]},"properties":{"圖徵編號":"201","agency":"長榮健康長照社團法人附設桃園市私立榮安居家長照機構","data":"2023011815:27:26","county":"桃園市","town":"中壢區","address":"桃園市中壢區自治里環中東路106巷3弄35號","O_ABC":"B","Serve":"專業照護服務","fax":"03-4515286","mail":"ronganltci@gmail.com","name":"謝麗玲","建立時間":"2023/10/23 上午 12:07:15"}},{"type":"Feature","geometry":{"type":"Point","coordinates":[121.2798004,24.98606873]},"properties":{"圖徵編號":"202","agency":"智浩企業有限公司附設桃園市私立瑞欣綜合長照機構","data":"2023011817:04:12","county":"桃園市","town":"桃園區","address":"桃園市桃園區龍鳳里龍鳳三街65巷38號","O_ABC":"B","Serve":"喘息服務","fax":"(03)369-6882","mail":"rueishindaycare@gmail.com","name":"陳昱全","建立時間":"2023/10/23 上午 12:07:15"}},{"type":"Feature","geometry":{"type":"Point","coordinates":[121.2181168,24.87511063]},"properties":{"圖徵編號":"203","agency":"新航國際租賃有限公司","data":"2023020109:05:18","county":"桃園市","town":"龍潭區","address":"桃園市龍潭區桃園市龍潭區龍華路369號(1樓)","O_ABC":"B","Serve":"交通接送服務","fax":"03-4805111","mail":"car5111@newroute.com.tw","name":"莊英隆","建立時間":"2023/10/23 上午 12:07:15"}},{"type":"Feature","geometry":{"type":"Point","coordinates":[121.0879669,24.99666023]},"properties":{"圖徵編號":"204","agency":"桃園市新屋區石磊社區發展協會","data":"2021012717:11:10","county":"桃園市","town":"新屋區","address":"桃園市新屋區石磊里三民路2段276號","O_ABC":"C","Serve":"巷弄長照站","fax":"03-4771835","mail":"Donshiumei@gmail.com","name":"沈鄧秀梅","建立時間":"2023/10/23 上午 12:07:15"}},{"type":"Feature","geometry":{"type":"Point","coordinates":[121.0879669,24.99666023]},"properties":{"圖徵編號":"205","agency":"桃園市新屋區石磊社區發展協會","data":"2020123117:34:03","county":"桃園市","town":"新屋區","address":"桃園市新屋區石磊里三民路2段276號","O_ABC":"B","Serve":"營養餐飲服務","fax":"03-4771835","mail":"Donshiumei@gmail.com","name":"沈鄧秀梅","建立時間":"2023/10/23 上午 12:07:15"}},{"type":"Feature","geometry":{"type":"Point","coordinates":[121.1655731,24.93740463]},"properties":{"圖徵編號":"206","agency":"桃園市楊梅區高榮社區發展協會","data":"2021012810:01:06","county":"桃園市","town":"楊梅區","address":"桃園市楊梅區高榮里幼獅路2段390-2號","O_ABC":"C","Serve":"巷弄長照站","fax":"0933-082698","mail":"sungfu@gmail.com","name":"宋傅玉嬌","建立時間":"2023/10/23 上午 12:07:15"}},{"type":"Feature","geometry":{"type":"Point","coordinates":[121.1719818,24.90904427]},"properties":{"圖徵編號":"207","agency":"財團法人臺北市阿瑪社會福利慈善事業基金會(中山據點)","data":"2021012715:11:59","county":"桃園市","town":"楊梅區","address":"桃園市楊梅區梅溪里中山北路2段191號1樓","O_ABC":"C","Serve":"巷弄長照站","fax":"0982-985298","mail":"rebecca401010@gmail.com","name":"廖淑彩","建立時間":"2023/10/23 上午 12:07:15"}},{"type":"Feature","geometry":{"type":"Point","coordinates":[121.2887726,25.05526924]},"properties":{"圖徵編號":"208","agency":"財團法人錸德文教基金會附設桃園市私立蘆竹錸工場社區長照機構","data":"2023011817:02:09","county":"桃園市","town":"蘆竹區","address":"桃園市蘆竹區錦中里錦溪路125號3樓","O_ABC":"B","Serve":"喘息服務","fax":"03-3280728","mail":"yuhuan.chang@ricare.com.tw","name":"楊慰芬","建立時間":"2023/10/23 上午 12:07:15"}},{"type":"Feature","geometry":{"type":"Point","coordinates":[121.1827087,24.9002037]},"properties":{"圖徵編號":"209","agency":"財團法人台灣省私立桃園仁愛之家","data":"2022112108:51:58","county":"桃園市","town":"楊梅區","address":"桃園市楊梅區高榮里梅獅路539巷3號","O_ABC":"B","Serve":"居家服務","fax":"03-4643385","mail":"tych.service@gmail.com","name":"李建榮","建立時間":"2023/10/23 上午 12:07:15"}},{"type":"Feature","geometry":{"type":"Point","coordinates":[121.1739044,25.03530121]},"properties":{"圖徵編號":"210","agency":"桃園市大園區竹圍社區發展協會","data":"2021012717:08:06","county":"桃園市","town":"大園區","address":"桃園市大園區和平里90-6號","O_ABC":"C","Serve":"巷弄長照站","fax":"03-3937570","mail":"qw033937570@yahoo.com.tw","name":"徐耀德","建立時間":"2023/10/23 上午 12:07:15"}},{"type":"Feature","geometry":{"type":"Point","coordinates":[121.1440506,24.96254539]},"properties":{"圖徵編號":"211","agency":"桃園市新屋區頭洲社區發展協會","data":"2020123117:21:50","county":"桃園市","town":"新屋區","address":"桃園市新屋區頭洲里中山東路2段668巷48號2樓","O_ABC":"B","Serve":"營養餐飲服務","fax":"03-4906688","mail":"li.p0920@msa.hinet.net","name":"吳瑞珠","建立時間":"2023/10/23 上午 12:07:15"}},{"type":"Feature","geometry":{"type":"Point","coordinates":[121.2926254,24.98759842]},"properties":{"圖徵編號":"212","agency":"芯薏企業有限公司附設桃園市私立芯薏居家長照機構","data":"2023022309:48:07","county":"桃園市","town":"桃園區","address":"桃園市桃園區中平路98號19樓之2","O_ABC":"B","Serve":"喘息服務","fax":"0917-944-249","mail":"sine1101216@gmail.com","name":"曾沛婕","建立時間":"2023/10/23 上午 12:07:15"}},{"type":"Feature","geometry":{"type":"Point","coordinates":[121.1820221,24.91717148]},"properties":{"圖徵編號":"213","agency":"姜博文診所","data":"2023072013:20:55","county":"桃園市","town":"楊梅區","address":"桃園市楊梅區永寧里永美路335號3樓","O_ABC":"B","Serve":"居家失能個案家庭醫師照護服務","fax":"03-4826241#322","mail":"4826241@gmail.com","name":"姜博文","建立時間":"2023/10/23 上午 12:07:15"}},{"type":"Feature","geometry":{"type":"Point","coordinates":[121.3570251,25.05495453]},"properties":{"圖徵編號":"214","agency":"福仁護理之家","data":"2023020707:24:40","county":"桃園市","town":"龜山區","address":"桃園市龜山區大崗里大崗里大湖一路79巷35號","O_ABC":"B","Serve":"喘息服務","fax":"03-3281616","mail":"f0930130091@gmail.com","name":"劉富美","建立時間":"2023/10/23 上午 12:07:15"}},{"type":"Feature","geometry":{"type":"Point","coordinates":[121.2792816,24.991539]},"properties":{"圖徵編號":"215","agency":"龍和診所","data":"2021102719:49:51","county":"桃園市","town":"桃園區","address":"桃園市桃園區龍安街153號","O_ABC":"B","Serve":"喘息服務","fax":"03-3786145","mail":"yujaogjr@gmail.com","name":"楊紹輝","建立時間":"2023/10/23 上午 12:07:15"}},{"type":"Feature","geometry":{"type":"Point","coordinates":[121.1452713,24.90494347]},"properties":{"圖徵編號":"216","agency":"社團法人台灣樂活服務發展協會(宣聖堂據點)","data":"2021012811:01:14","county":"桃園市","town":"楊梅區","address":"桃園市楊梅區紅梅里校前路32巷25-1號1樓","O_ABC":"C","Serve":"巷弄長照站","fax":"0982-985298","mail":"rebecca401010@gmail.com","name":"馬瑞辰","建立時間":"2023/10/23 上午 12:07:15"}},{"type":"Feature","geometry":{"type":"Point","coordinates":[121.2781143,25.05712509]},"properties":{"圖徵編號":"217","agency":"職物語居家職能治療所","data":"2022031415:44:20","county":"桃園市","town":"蘆竹區","address":"桃園市蘆竹區南崁路2段83號18樓之3(1826室)","O_ABC":"B","Serve":"專業照護服務","fax":"0913-820528","mail":"ops1080322@gmail.com","name":"李柏毅","建立時間":"2023/10/23 上午 12:07:15"}},{"type":"Feature","geometry":{"type":"Point","coordinates":[121.285347,24.90045547]},"properties":{"圖徵編號":"218","agency":"財團法人天下為公社會福利慈善事業基金會大溪區","data":"2023012519:30:06","county":"桃園市","town":"大溪區","address":"桃園市大溪區僑愛一街109號1樓","O_ABC":"A","Serve":"個案管理服務","fax":"03-3078029","mail":"smileyu0930@gmail.com","name":"胡世賢","建立時間":"2023/10/23 上午 12:07:15"}},{"type":"Feature","geometry":{"type":"Point","coordinates":[121.331749,24.99531937]},"properties":{"圖徵編號":"219","agency":"社團法人中華民國士林靈糧堂社會福利協會附設桃園市私立龜山陸光社區長照機構","data":"2023042613:20:07","county":"桃園市","town":"龜山區","address":"桃園市龜山區陸光里029鄰自強西路240號1樓","O_ABC":"B","Serve":"喘息服務","fax":"03-2132050","mail":"ksdaycare@slsc.org.tw","name":"劉群茂","建立時間":"2023/10/23 上午 12:07:15"}},{"type":"Feature","geometry":{"type":"Point","coordinates":[121.1855545,24.94808769]},"properties":{"圖徵編號":"220","agency":"福樂居家物理治療所","data":"2023080217:19:14","county":"桃園市","town":"平鎮區","address":"桃園市平鎮區文化街236巷5號1樓","O_ABC":"B","Serve":"專業照護服務(CC01)","fax":"0928-631872","mail":"fufupt@gmail.com","name":"羅苡綾","建立時間":"2023/10/23 上午 12:07:15"}},{"type":"Feature","geometry":{"type":"Point","coordinates":[121.1649933,24.96212578]},"properties":{"圖徵編號":"221","agency":"桃園市私立關懷居家長照機構","data":"2023022014:44:10","county":"桃園市","town":"中壢區","address":"桃園市中壢區過嶺里松信路109號1樓","O_ABC":"B","Serve":"喘息服務","fax":"03-4905753","mail":"care4905753@gmail.com","name":"許良怡","建立時間":"2023/10/23 上午 12:07:15"}},{"type":"Feature","geometry":{"type":"Point","coordinates":[121.201149,25.06280899]},"properties":{"圖徵編號":"222","agency":"愛爾德長者事業有限公司附設桃園市私立喜大人晨寶社區長照機構","data":"2023042613:51:41","county":"桃園市","town":"大園區","address":"桃園市大園區橫峰里010鄰中正東路97-2號3樓","O_ABC":"B","Serve":"喘息服務","fax":"287-3224","mail":"jayg1981111108@gmail.com","name":"廖思琪","建立時間":"2023/10/23 上午 12:07:15"}},{"type":"Feature","geometry":{"type":"Point","coordinates":[121.0965652,25.00687599]},"properties":{"圖徵編號":"223","agency":"財團法人中保關懷社會福利基金會附設桃園市私立觀音石橋社區長照機構","data":"2023042613:19:03","county":"桃園市","town":"觀音區","address":"桃園市觀音區新興里7鄰文化路石橋段453號1樓","O_ABC":"B","Serve":"日間照顧服務","fax":"447-7157","mail":"elva002004@gmail.com","name":"洪培修","建立時間":"2023/10/23 上午 12:07:15"}},{"type":"Feature","geometry":{"type":"Point","coordinates":[121.2812958,24.91018867]},"properties":{"圖徵編號":"224","agency":"仁群診所","data":"2023072015:05:58","county":"桃園市","town":"大溪區","address":"桃園市大溪區仁善街222號1樓","O_ABC":"B","Serve":"居家失能個案家庭醫師照護服務","fax":"03-3806021","mail":"a842250@gmail.com","name":"張維剛","建立時間":"2023/10/23 上午 12:07:15"}},{"type":"Feature","geometry":{"type":"Point","coordinates":[121.2968445,24.9631176]},"properties":{"圖徵編號":"225","agency":"社團法人桃園市失能老人關懷協會附設桃園市私立日日順居家長照機構","data":"2023050809:55:07","county":"桃園市","town":"八德區","address":"桃園市八德區福國北街220號","O_ABC":"B","Serve":"喘息服務","fax":"03-3761383","mail":"sss0909636513@gmail.com","name":"許慈育","建立時間":"2023/10/23 上午 12:07:15"}},{"type":"Feature","geometry":{"type":"Point","coordinates":[121.2925568,24.95969391]},"properties":{"圖徵編號":"226","agency":"桃園市私立萊恩居家長照機構","data":"2023031715:03:08","county":"桃園市","town":"八德區","address":"桃園市八德區廣福路276號","O_ABC":"B","Serve":"居家服務","fax":"03-3618622","mail":"lionhomecare276@gmail.com","name":"游?文","建立時間":"2023/10/23 上午 12:07:15"}},{"type":"Feature","geometry":{"type":"Point","coordinates":[121.3328552,24.99484634]},"properties":{"圖徵編號":"227","agency":"社團法人桃園市社會服務關懷協會附設桃園市私立愈安社區式服務類長期照顧服務機構","data":"2023022212:02:59","county":"桃園市","town":"龜山區","address":"桃園市龜山區新路里陸光路55號1樓","O_ABC":"B","Serve":"喘息服務","fax":"03-3181946","mail":"yujiannursing@gmail.com","name":"賴秋梅","建立時間":"2023/10/23 上午 12:07:15"}},{"type":"Feature","geometry":{"type":"Point","coordinates":[121.1987305,25.08862305]},"properties":{"圖徵編號":"228","agency":"桃園市大園區圳頭社區發展協會","data":"2021012717:58:57","county":"桃園市","town":"大園區","address":"桃園市大園區圳頭里濱海路二段432號","O_ABC":"C","Serve":"巷弄長照站","fax":"0932-371-053","mail":"cho0932371053@gmail.com","name":"劉傳德","建立時間":"2023/10/23 上午 12:07:15"}},{"type":"Feature","geometry":{"type":"Point","coordinates":[121.2374802,24.95732117]},"properties":{"圖徵編號":"229","agency":"桃園市中壢區普仁里辦公處","data":"2019123118:00:55","county":"桃園市","town":"中壢區","address":"桃園市中壢區普仁里桃園市中壢區普仁里日新路20號","O_ABC":"C","Serve":"巷弄長照站","fax":"0932-282214","mail":"80013932@mail.tycg.gov.tw","name":"張鳳凰里長","建立時間":"2023/10/23 上午 12:07:15"}},{"type":"Feature","geometry":{"type":"Point","coordinates":[121.1899643,25.04692078]},"properties":{"圖徵編號":"230","agency":"桃園市大園區溪海社區發展協會","data":"2019123120:20:01","county":"桃園市","town":"大園區","address":"桃園市大園區溪海里聖德北路22巷76弄1號","O_ABC":"C","Serve":"巷弄長照站","fax":"0910-910865","mail":"Minayang0730@gmail.com","name":"賴萬平","建立時間":"2023/10/23 上午 12:07:15"}},{"type":"Feature","geometry":{"type":"Point","coordinates":[121.243309,24.92624664]},"properties":{"圖徵編號":"231","agency":"桃園市中壢區龍岡里辦公處","data":"2021012716:38:56","county":"桃園市","town":"中壢區","address":"桃園市中壢區龍岡里龍岡路3段742號","O_ABC":"C","Serve":"巷弄長照站","fax":"03-4504722","mail":"80019016@mail.tycg.gov.tw","name":"吳淑情","建立時間":"2023/10/23 上午 12:07:15"}},{"type":"Feature","geometry":{"type":"Point","coordinates":[121.2926788,24.9873333]},"properties":{"圖徵編號":"232","agency":"成信樂齡股份有限公司附設桃園市私立成信居家長照機構","data":"2023032717:50:00","county":"桃園市","town":"桃園區","address":"桃園市桃園區中山里中平路102號7樓之3","O_ABC":"B","Serve":"喘息服務","fax":"03-2711661","mail":"chengxin202205@gmail.com","name":"望安佳","建立時間":"2023/10/23 上午 12:07:15"}},{"type":"Feature","geometry":{"type":"Point","coordinates":[121.2691879,24.97770309]},"properties":{"圖徵編號":"233","agency":"衛生福利部桃園醫院","data":"2023030210:38:11","county":"桃園市","town":"桃園區","address":"桃園市桃園區中山路1492號","O_ABC":"B","Serve":"專業照護服務","fax":"03-3699721","mail":"tyghltca@gmail.com","name":"陳日昌","建立時間":"2023/10/23 上午 12:07:15"}},{"type":"Feature","geometry":{"type":"Point","coordinates":[121.2973785,24.9906826]},"properties":{"圖徵編號":"234","agency":"中華民國紅十字會桃園市分會社團法人附設桃園市私立紅十字居家式服務類長期照顧服務機構","data":"2023020112:10:03","county":"桃園市","town":"桃園區","address":"桃園市桃園區泰山里中山路507巷12號6樓","O_ABC":"B","Serve":"居家服務","fax":"03-3327656","mail":"ty.red@msa.hinet.net","name":"劉志清","建立時間":"2023/10/23 上午 12:07:15"}},{"type":"Feature","geometry":{"type":"Point","coordinates":[121.1851273,24.91655159]},"properties":{"圖徵編號":"235","agency":"同心瑞埔診所","data":"2023072014:55:33","county":"桃園市","town":"楊梅區","address":"桃園市楊梅區中興路132號","O_ABC":"B","Serve":"居家失能個案家庭醫師照護服務","fax":"034-823-598","mail":"tongxinvp@gmail.com","name":"余貴華","建立時間":"2023/10/23 上午 12:07:15"}},{"type":"Feature","geometry":{"type":"Point","coordinates":[121.2459641,24.82894897]},"properties":{"圖徵編號":"236","agency":"桃園市龍潭區石門社區發展協會","data":"2021012810:03:19","county":"桃園市","town":"龍潭區","address":"桃園市龍潭區大平里永平路80號","O_ABC":"C","Serve":"巷弄長照站","fax":"0913-181651","mail":"kong51688@yahoo.com.tw","name":"李連宗","建立時間":"2023/10/23 上午 12:07:15"}},{"type":"Feature","geometry":{"type":"Point","coordinates":[121.1869278,24.96598434]},"properties":{"圖徵編號":"237","agency":"寬福護理之家平鎮區","data":"2023012519:26:52","county":"桃園市","town":"平鎮區","address":"桃園市平鎮區延平路二段350之3號1樓","O_ABC":"A","Serve":"個案管理服務","fax":"03-491-0630","mail":"canfullaunit@gmail.com","name":"周矢綾","建立時間":"2023/10/23 上午 12:07:15"}},{"type":"Feature","geometry":{"type":"Point","coordinates":[121.2168121,24.86464119]},"properties":{"圖徵編號":"238","agency":"桃園市龍潭區大中正社區發展協會","data":"2021012810:04:20","county":"桃園市","town":"龍潭區","address":"桃園市龍潭區龍星里中正路204號","O_ABC":"C","Serve":"巷弄長照站","fax":"0933-081785","mail":"ping1103.tw@yahoo.com.tw","name":"陳金順","建立時間":"2023/10/23 上午 12:07:15"}},{"type":"Feature","geometry":{"type":"Point","coordinates":[121.2879715,25.04184723]},"properties":{"圖徵編號":"239","agency":"桃園市蘆竹區順興社區發展協會","data":"2019123114:48:59","county":"桃園市","town":"蘆竹區","address":"桃園市蘆竹區順興里南昌路30-1號","O_ABC":"C","Serve":"巷弄長照站","fax":"0931-161-275","mail":"80020481@mail.tycg.gov.tw","name":"黃錦龍","建立時間":"2023/10/23 上午 12:07:15"}},{"type":"Feature","geometry":{"type":"Point","coordinates":[121.1984253,24.90699005]},"properties":{"圖徵編號":"240","agency":"中壢長榮醫院平鎮區","data":"2023012519:44:39","county":"桃園市","town":"平鎮區","address":"桃園市平鎮區龍南路200號","O_ABC":"A","Serve":"個案管理服務","fax":"03-4631230","mail":"sw@mail.egh.com.tw","name":"謝麗玲","建立時間":"2023/10/23 上午 12:07:15"}},{"type":"Feature","geometry":{"type":"Point","coordinates":[121.201149,25.06280899]},"properties":{"圖徵編號":"241","agency":"愛爾德長者事業有限公司附設桃園市私立喜大人晨寶社區長照機構","data":"2023042613:48:39","county":"桃園市","town":"大園區","address":"桃園市大園區橫峰里010鄰中正東路97-2號3樓","O_ABC":"B","Serve":"喘息服務","fax":"287-3224","mail":"jayg1981111108@gmail.com","name":"廖思琪","建立時間":"2023/10/23 上午 12:07:15"}},{"type":"Feature","geometry":{"type":"Point","coordinates":[121.3676834,25.0585556]},"properties":{"圖徵編號":"242","agency":"松林護理之家","data":"2023011013:54:44","county":"桃園市","town":"龜山區","address":"桃園市龜山區文化里復興北路6巷46號","O_ABC":"B","Serve":"喘息服務","fax":"03-3180999","mail":"87955@cch.org.tw","name":"簡慧足","建立時間":"2023/10/23 上午 12:07:15"}},{"type":"Feature","geometry":{"type":"Point","coordinates":[121.3035049,24.99825668]},"properties":{"圖徵編號":"243","agency":"世豪小客車租賃有限公司","data":"2023020109:05:31","county":"桃園市","town":"桃園區","address":"桃園市桃園區永安路223號3樓","O_ABC":"B","Serve":"交通接送服務","fax":"03-331-6367","mail":"peggyhuang6924@gmail.com","name":"舒茂松","建立時間":"2023/10/23 上午 12:07:15"}},{"type":"Feature","geometry":{"type":"Point","coordinates":[121.2281494,24.92669487]},"properties":{"圖徵編號":"244","agency":"信醫物理治療所","data":"2023022013:37:14","county":"桃園市","town":"平鎮區","address":"桃園市平鎮區金陵路三段197巷1弄21-2號","O_ABC":"B","Serve":"專業照護服務","fax":"03-4575777","mail":"allen670815@gmail.com","name":"張信駿","建立時間":"2023/10/23 上午 12:07:15"}},{"type":"Feature","geometry":{"type":"Point","coordinates":[121.1482239,24.89798927]},"properties":{"圖徵編號":"245","agency":"桃園市楊梅區永揚社區發展協會","data":"2019123118:15:08","county":"桃園市","town":"楊梅區","address":"桃園市楊梅區永寧里32鄰校前路324巷148號1樓","O_ABC":"C","Serve":"巷弄長照站","fax":"0937-119695","mail":"80017360@mail.tycg.gov.tw","name":"張火爐","建立時間":"2023/10/23 上午 12:07:15"}},{"type":"Feature","geometry":{"type":"Point","coordinates":[121.1817169,24.90903091]},"properties":{"圖徵編號":"246","agency":"桃園市私立惜老社區長照機構","data":"2023011816:02:12","county":"桃園市","town":"楊梅區","address":"桃園市楊梅區瑞坪里瑞溪路二段156號2樓","O_ABC":"B","Serve":"日間照顧服務","fax":"03-4817779","mail":"ivy08206@gmail.com","name":"陳佳瑩","建立時間":"2023/10/23 上午 12:07:15"}},{"type":"Feature","geometry":{"type":"Point","coordinates":[121.1821136,24.96069336]},"properties":{"圖徵編號":"247","agency":"全能居家職能治療所","data":"2023080217:19:14","county":"桃園市","town":"平鎮區","address":"桃園市平鎮區東社里15鄰社子3之21號2樓","O_ABC":"B","Serve":"專業照護服務(CC01)","fax":"03-4609646","mail":"linhunglin1011@gmail.com","name":"林宏霖","建立時間":"2023/10/23 上午 12:07:15"}},{"type":"Feature","geometry":{"type":"Point","coordinates":[121.2274246,24.96010399]},"properties":{"圖徵編號":"248","agency":"桃園市松鶴會","data":"2021012716:36:10","county":"桃園市","town":"中壢區","address":"桃園市中壢區永興里元化路182-2號","O_ABC":"C","Serve":"巷弄長照站","fax":"0932-280267","mail":"jacyliao660301@gmail.com","name":"周進杉","建立時間":"2023/10/23 上午 12:07:15"}},{"type":"Feature","geometry":{"type":"Point","coordinates":[121.1485214,24.90137863]},"properties":{"圖徵編號":"249","agency":"惠好居家職能治療所","data":"2023080217:19:14","county":"桃園市","town":"楊梅區","address":"桃園市楊梅區校前路254巷55號10樓","O_ABC":"B","Serve":"專業照護服務(CC01)","fax":"0936-999246","mail":"tenglendon@gmail.com","name":"鄧金春","建立時間":"2023/10/23 上午 12:07:15"}},{"type":"Feature","geometry":{"type":"Point","coordinates":[121.3009872,25.02059174]},"properties":{"圖徵編號":"250","agency":"桃園市私立康健老人長期照顧中心(養護型)","data":"2023011815:05:11","county":"桃園市","town":"桃園區","address":"桃園市桃園區新埔七街101號2、3樓","O_ABC":"B","Serve":"喘息服務","fax":"03-3552546","mail":"tongn101@yahoo.com.tw","name":"許松峰","建立時間":"2023/10/23 上午 12:07:15"}},{"type":"Feature","geometry":{"type":"Point","coordinates":[121.1445999,24.91292381]},"properties":{"圖徵編號":"251","agency":"中華民國紅十字會桃園市分會","data":"2019123118:30:44","county":"桃園市","town":"楊梅區","address":"桃園市楊梅區楊梅里大模街10號2樓","O_ABC":"C","Serve":"巷弄長照站","fax":"0937-116355","mail":"80017360@mail.tycg.gov.tw","name":"劉志清","建立時間":"2023/10/23 上午 12:07:15"}},{"type":"Feature","geometry":{"type":"Point","coordinates":[121.226799,24.96100616]},"properties":{"圖徵編號":"252","agency":"桃寶事業有限公司附設桃園市私立桃寶居家長照機構","data":"2023011814:47:22","county":"桃園市","town":"中壢區","address":"桃園市中壢區新街里元化路220號7樓","O_ABC":"B","Serve":"喘息服務","fax":"0921-302-271","mail":"taubau2020@gmail.com","name":"游昌翰","建立時間":"2023/10/23 上午 12:07:15"}},{"type":"Feature","geometry":{"type":"Point","coordinates":[121.1233368,25.05061913]},"properties":{"圖徵編號":"253","agency":"桃園市觀音區富源社區發展協會","data":"2021012717:06:04","county":"桃園市","town":"觀音區","address":"桃園市觀音區富源里新富路801巷65號","O_ABC":"C","Serve":"巷弄長照站","fax":"03-4900430","mail":"jung.lingyu@msa.hinet.net","name":"余奕增","建立時間":"2023/10/23 上午 12:07:15"}},{"type":"Feature","geometry":{"type":"Point","coordinates":[121.2853699,24.90138626]},"properties":{"圖徵編號":"254","agency":"桃園市私立仁德社區長照機構","data":"2023020615:44:30","county":"桃園市","town":"大溪區","address":"桃園市大溪區仁文里5鄰自強街59號1樓","O_ABC":"B","Serve":"家庭托顧服務","fax":"03-3072199","mail":"cengy052@gmail.com","name":"曾瀧慶","建立時間":"2023/10/23 上午 12:07:15"}},{"type":"Feature","geometry":{"type":"Point","coordinates":[121.2862015,25.08615112]},"properties":{"圖徵編號":"255","agency":"愛爾德長者事業有限公司附設桃園市私立喜大人冠怡社區長照機構","data":"2023011817:03:10","county":"桃園市","town":"蘆竹區","address":"桃園市蘆竹區濱海里海山路14號2樓","O_ABC":"B","Serve":"日間照顧服務","fax":"03-287-3224","mail":"jayg1981111108@gmail.com","name":"廖思琪","建立時間":"2023/10/23 上午 12:07:15"}},{"type":"Feature","geometry":{"type":"Point","coordinates":[121.1511154,25.0580883]},"properties":{"圖徵編號":"256","agency":"桃園市觀音區保障社區發展協會","data":"2021012717:18:16","county":"桃園市","town":"觀音區","address":"桃園市觀音區保障里保障二路562號","O_ABC":"C","Serve":"巷弄長照站","fax":"03-4830119","mail":"sf3855533@yahoo.com.tw","name":"李秀玉","建立時間":"2023/10/23 上午 12:07:15"}},{"type":"Feature","geometry":{"type":"Point","coordinates":[120.2677343,22.7645431]},"properties":{"圖徵編號":"257","agency":"財團法人錸德文教基金會附設桃園市私立新屋頭洲社區長照機構","data":"2023031509:27:42","county":"桃園市","town":"新屋區","address":"桃園市新屋區頭洲里福州一街40號1樓","O_ABC":"B","Serve":"喘息服務","fax":"03-4900928","mail":"ricare.xinwu01@gmail.com","name":"楊慰芬","建立時間":"2023/10/23 上午 12:07:15"}},{"type":"Feature","geometry":{"type":"Point","coordinates":[121.2916336,24.99866104]},"properties":{"圖徵編號":"258","agency":"美一天居家物理治療所","data":"2023022013:39:05","county":"桃園市","town":"桃園區","address":"桃園市桃園區龍泉一街33號4樓","O_ABC":"B","Serve":"專業照護服務","fax":"0922-073672","mail":"s9046023@gmail.com","name":"葉茜汶","建立時間":"2023/10/23 上午 12:07:15"}},{"type":"Feature","geometry":{"type":"Point","coordinates":[121.227623,24.96177673]},"properties":{"圖徵編號":"259","agency":"天成醫療社團法人附設桃園市私立金色年代綜合式服務類長期照顧服務機構","data":"2023011816:48:15","county":"桃園市","town":"中壢區","address":"桃園市中壢區新街里006鄰延平路219號","O_ABC":"B","Serve":"日間照顧服務","fax":"03-4620085","mail":"homecare01@tcmg.com.tw","name":"徐慧伊","建立時間":"2023/10/23 上午 12:07:15"}},{"type":"Feature","geometry":{"type":"Point","coordinates":[121.1575775,24.91320801]},"properties":{"圖徵編號":"260","agency":"社團法人台灣樂活服務發展協會(一品據點)","data":"2021012715:35:48","county":"桃園市","town":"楊梅區","address":"桃園市楊梅區楊明里新農街429巷32弄2號","O_ABC":"C","Serve":"巷弄長照站","fax":"0982-985298","mail":"glory4820910@gmail.com","name":"林淑萍","建立時間":"2023/10/23 上午 12:07:15"}},{"type":"Feature","geometry":{"type":"Point","coordinates":[121.1311264,24.94824028]},"properties":{"圖徵編號":"261","agency":"鼎居護理之家","data":"2023022016:16:37","county":"桃園市","town":"楊梅區","address":"桃園市楊梅區上田里高鐵南路7段178巷16號","O_ABC":"B","Serve":"喘息服務","fax":"03-2888666","mail":"duj28888666@gmail.com","name":"鄭順意","建立時間":"2023/10/23 上午 12:07:15"}},{"type":"Feature","geometry":{"type":"Point","coordinates":[121.3095551,24.97520638]},"properties":{"圖徵編號":"262","agency":"福安居家物理治療所","data":"2023080217:19:14","county":"桃園市","town":"八德區","address":"桃園市八德區樹仁三街601號1樓","O_ABC":"B","Serve":"專業照護服務(CC01)","fax":"0965-667316","mail":"tommy830316@gmail.com","name":"朱曉英","建立時間":"2023/10/23 上午 12:07:15"}},{"type":"Feature","geometry":{"type":"Point","coordinates":[121.22052,24.92934036]},"properties":{"圖徵編號":"263","agency":"社區式服務交通接送-財團法人桃園市私立國宏老人長期照顧中心(養護型)","data":"2023011816:59:26","county":"桃園市","town":"平鎮區","address":"桃園市平鎮區北貴里２０鄰關爺東路１９之５號","O_ABC":"B","Serve":"交通接送服務","fax":"03-4582977分機199","mail":"chang7716@gmail.com","name":"吳黃玉英","建立時間":"2023/10/23 上午 12:07:15"}},{"type":"Feature","geometry":{"type":"Point","coordinates":[121.2580414,24.96482658]},"properties":{"圖徵編號":"264","agency":"中壢長榮醫院附設居家護理所","data":"2023011013:27:48","county":"桃園市","town":"中壢區","address":"桃園市中壢區環中東路106巷1弄31號","O_ABC":"B","Serve":"專業照護服務","fax":"03-4631230","mail":"betty680916@gmail.com","name":"徐子喬","建立時間":"2023/10/23 上午 12:07:15"}},{"type":"Feature","geometry":{"type":"Point","coordinates":[121.1505203,24.90937805]},"properties":{"圖徵編號":"265","agency":"社團法人台灣喜樂家族協會附設桃園市私立冠冕居家長照機構","data":"2023032114:51:01","county":"桃園市","town":"楊梅區","address":"桃園市楊梅區新農街136巷3號1樓","O_ABC":"B","Serve":"喘息服務","fax":"03-4881966","mail":"crown.lifetao@gmail.com","name":"林黃寶彩","建立時間":"2023/10/23 上午 12:07:15"}},{"type":"Feature","geometry":{"type":"Point","coordinates":[121.3095551,24.97520638]},"properties":{"圖徵編號":"266","agency":"桃園市私立旭登居家式服務類長期照顧服務機構","data":"2023020215:14:59","county":"桃園市","town":"八德區","address":"桃園市八德區大強里樹仁三街601號3樓","O_ABC":"B","Serve":"到宅沐浴車服務","fax":"03-2181190","mail":"rr0329@yahoo.com.tw","name":"李昆璋","建立時間":"2023/10/23 上午 12:07:15"}},{"type":"Feature","geometry":{"type":"Point","coordinates":[121.1505203,24.90937805]},"properties":{"圖徵編號":"267","agency":"社團法人台灣喜樂家族協會附設桃園市私立冠冕居家長照機構","data":"2023033113:19:08","county":"桃園市","town":"楊梅區","address":"桃園市楊梅區新農街136巷3號1樓","O_ABC":"B","Serve":"居家服務","fax":"03-4881966","mail":"crown.lifetao@gmail.com","name":"林黃寶彩","建立時間":"2023/10/23 上午 12:07:15"}},{"type":"Feature","geometry":{"type":"Point","coordinates":[121.2066498,24.95661926]},"properties":{"圖徵編號":"268","agency":"顧得樂長照有限公司附設桃園市私立顧得樂居家長照機構","data":"2023020310:59:05","county":"桃園市","town":"平鎮區","address":"桃園市平鎮區環南路18號8樓之五","O_ABC":"B","Serve":"喘息服務","fax":"03-4924757","mail":"a034259979@gmail.com","name":"張譽籇","建立時間":"2023/10/23 上午 12:07:15"}},{"type":"Feature","geometry":{"type":"Point","coordinates":[121.324295,24.89468765]},"properties":{"圖徵編號":"269","agency":"桃園市大溪區永福社區發展協會","data":"2021012717:59:52","county":"桃園市","town":"大溪區","address":"桃園市大溪區永福里信義路1125號","O_ABC":"C","Serve":"巷弄長照站","fax":"0933-833019","mail":"a0933833019@gmail.com","name":"王在義","建立時間":"2023/10/23 上午 12:07:15"}},{"type":"Feature","geometry":{"type":"Point","coordinates":[121.3095551,24.97520638]},"properties":{"圖徵編號":"270","agency":"桃園市私立旭登居家式服務類長期照顧服務機構","data":"2023020116:07:50","county":"桃園市","town":"八德區","address":"桃園市八德區大強里樹仁三街601號3樓","O_ABC":"B","Serve":"居家服務","fax":"03-2181190","mail":"rr0329@yahoo.com.tw","name":"李昆璋","建立時間":"2023/10/23 上午 12:07:15"}},{"type":"Feature","geometry":{"type":"Point","coordinates":[121.2109985,25.00407791]},"properties":{"圖徵編號":"271","agency":"財團法人雙福社會福利慈善事業基金會附設桃園市私立大溪崎頂社區長照機構","data":"2023011817:01:17","county":"桃園市","town":"大溪區","address":"桃園市大溪區仁武里001鄰公園路30號1樓","O_ABC":"B","Serve":"喘息服務","fax":"03-3805695","mail":"sepen33@gmail.com","name":"吳英賓","建立時間":"2023/10/23 上午 12:07:15"}},{"type":"Feature","geometry":{"type":"Point","coordinates":[121.0581436,24.98334694]},"properties":{"圖徵編號":"272","agency":"桃園市新屋區下田社區發展協會","data":"2021012809:58:08","county":"桃園市","town":"新屋區","address":"桃園市新屋區下田里中山西路二段780號","O_ABC":"C","Serve":"巷弄長照站","fax":"0952-629-402","mail":"m0952629402@gmail.com","name":"葉榮清","建立時間":"2023/10/23 上午 12:07:15"}},{"type":"Feature","geometry":{"type":"Point","coordinates":[121.2987518,24.95763779]},"properties":{"圖徵編號":"273","agency":"桃園市八德區大成社區發展協會","data":"2021012716:10:31","county":"桃園市","town":"八德區","address":"桃園市八德區瑞發里建國路1199號2樓","O_ABC":"C","Serve":"巷弄長照站","fax":"0928-122429","mail":"zkc0928122429@yahoo.com","name":"曾國政","建立時間":"2023/10/23 上午 12:07:15"}},{"type":"Feature","geometry":{"type":"Point","coordinates":[121.3123779,24.99609566]},"properties":{"圖徵編號":"274","agency":"桃園市私立民享老人長期照顧中心(養護型)","data":"2023011814:35:44","county":"桃園市","town":"桃園區","address":"桃園市桃園區民生路290號","O_ABC":"B","Serve":"喘息服務","fax":"03-3350800","mail":"ju0317@yahoo.com.tw","name":"黃靜如","建立時間":"2023/10/23 上午 12:07:15"}},{"type":"Feature","geometry":{"type":"Point","coordinates":[121.1485214,24.90137863]},"properties":{"圖徵編號":"275","agency":"惠好居家職能治療所","data":"2022032209:24:21","county":"桃園市","town":"楊梅區","address":"桃園市楊梅區校前路254巷55號10樓","O_ABC":"B","Serve":"專業照護服務","fax":"0936-999246","mail":"tenglendon@gmail.com","name":"鄧金春","建立時間":"2023/10/23 上午 12:07:15"}},{"type":"Feature","geometry":{"type":"Point","coordinates":[121.3136139,25.00992393]},"properties":{"圖徵編號":"276","agency":"財團法人中華民國佛教慈濟慈善事業基金會桃園市私立慈濟居家長照機構","data":"2023012519:32:28","county":"桃園市","town":"桃園區","address":"桃園市桃園區大業路一段307號","O_ABC":"A","Serve":"個案管理服務","fax":"03-3586111#202","mail":"Ltc000181@tzuchi.org.tw","name":"釋證嚴","建立時間":"2023/10/23 上午 12:07:15"}},{"type":"Feature","geometry":{"type":"Point","coordinates":[121.2854156,24.90140915]},"properties":{"圖徵編號":"277","agency":"桃園市私立樂齡社區長照機構","data":"2023020615:43:42","county":"桃園市","town":"大溪區","address":"桃園市大溪區仁文里5鄰自強街61號1樓","O_ABC":"B","Serve":"家庭托顧服務","fax":"03-3808988","mail":"cengy052@gmail.com","name":"郭秋麗","建立時間":"2023/10/23 上午 12:07:15"}},{"type":"Feature","geometry":{"type":"Point","coordinates":[121.2946167,24.91918182]},"properties":{"圖徵編號":"278","agency":"桃園市大溪區仁義里辦公處","data":"2021012716:12:06","county":"桃園市","town":"大溪區","address":"桃園市大溪區仁義里介壽路211巷2弄32號","O_ABC":"C","Serve":"巷弄長照站","fax":"03-3801672","mail":"c197518@gmail.com","name":"張振源","建立時間":"2023/10/23 上午 12:07:15"}},{"type":"Feature","geometry":{"type":"Point","coordinates":[121.1870956,24.99055862]},"properties":{"圖徵編號":"279","agency":"懷寧護理之家","data":"2023011816:58:34","county":"桃園市","town":"中壢區","address":"桃園市中壢區月眉里崇德三路250號1至4樓、252號1至4樓","O_ABC":"B","Serve":"日間照顧服務","fax":"03-4080143","mail":"v0989326287@gmail.com","name":"楊少如","建立時間":"2023/10/23 上午 12:07:15"}},{"type":"Feature","geometry":{"type":"Point","coordinates":[121.2932281,25.04340172]},"properties":{"圖徵編號":"280","agency":"桃園市蘆竹區南榮社區發展協會","data":"2021012810:12:22","county":"桃園市","town":"蘆竹區","address":"桃園市蘆竹區南榮里桃園街9號","O_ABC":"C","Serve":"巷弄長照站","fax":"0932-068061","mail":"chuan.hg95@gmail.com","name":"卓宗賢","建立時間":"2023/10/23 上午 12:07:15"}},{"type":"Feature","geometry":{"type":"Point","coordinates":[121.3568649,25.00128365]},"properties":{"圖徵編號":"281","agency":"桃園市私立浤益居家長照機構","data":"2023020117:15:50","county":"桃園市","town":"龜山區","address":"桃園市龜山區嶺頂里17鄰萬壽路二段339號3樓","O_ABC":"B","Serve":"居家服務","fax":"03-3500625","mail":"hongyi.homecare@gmail.com","name":"陳濬豪","建立時間":"2023/10/23 上午 12:07:15"}},{"type":"Feature","geometry":{"type":"Point","coordinates":[121.2232895,24.95684624]},"properties":{"圖徵編號":"282","agency":"桃園市私立天使居家長照機構","data":"2023020707:23:07","county":"桃園市","town":"中壢區","address":"桃園市中壢區復興路50號7樓","O_ABC":"B","Serve":"喘息服務","fax":"03-4263365","mail":"b0910334050@gmail.com","name":"翁茂榕","建立時間":"2023/10/23 上午 12:07:15"}},{"type":"Feature","geometry":{"type":"Point","coordinates":[121.3397217,24.99524498]},"properties":{"圖徵編號":"283","agency":"社團法人台灣立享長照服務教育發展協會附設桃園市私立立享居家長照機構","data":"2023020114:26:39","county":"桃園市","town":"龜山區","address":"桃園市龜山區中和南路22號","O_ABC":"B","Serve":"居家服務","fax":"03-3195589","mail":"lixiang15588@gmail.com","name":"朱柏霖","建立時間":"2023/10/23 上午 12:07:15"}},{"type":"Feature","geometry":{"type":"Point","coordinates":[121.0965652,25.00687599]},